% program   : ES 1.7
% inp file  : F:\_GNSS Surveying\CryoSAR 2023-2024\2023-11-15\Emlid RS2 Rover\MagnaProbe_VegSurvey_ROVER_Files\ECCCreach3_raw_20231115183557_RINEX_3_03\ECCCreach3_raw_20231115183557.23O
% inp file  : F:\_GNSS Surveying\CryoSAR 2023-2024\2023-11-15\Emlid RS2 Basestation\ECCCreach1_raw_20231114233644_RINEX_3_03\ECCCreach1_raw_20231114233644.23P
% inp file  : F:\_GNSS Surveying\CryoSAR 2023-2024\2023-11-15\Emlid RS2 Basestation\ECCCreach1_raw_20231114233644_RINEX_3_03\ECCCreach1_raw_20231114233644.23O
% obs start : 2023/11/15 18:35:58.0 UTC (week2288 326176.0s)
% obs end   : 2023/11/15 19:27:14.0 UTC (week2288 329252.0s)
% ref pos   : 46.085005960 -79.346295870  225.3290
%
% (lat/lon/height=WGS84/ellipsoidal,Q=1:fix,2:float,3:sbas,4:dgps,5:single,6:ppp,ns=# of satellites)
%  UTC                   latitude(deg) longitude(deg)  height(m)   Q  ns   sdn(m)   sde(m)   sdu(m)  sdne(m)  sdeu(m)  sdun(m) age(s)  ratio
2023/11/15 18:35:58.000   46.085022936  -79.346201013   225.4805   1  23   0.0033   0.0034   0.0076   0.0011   0.0017  -0.0004  -0.01    7.0
2023/11/15 18:35:59.000   46.085023104  -79.346201042   225.4752   1  23   0.0033   0.0034   0.0076   0.0011   0.0017  -0.0004  -0.01    7.0
2023/11/15 18:36:00.000   46.085023068  -79.346200659   225.4922   1  23   0.0033   0.0034   0.0076   0.0011   0.0017  -0.0004  -0.01    7.0
2023/11/15 18:36:01.000   46.085022949  -79.346199831   225.4975   1  23   0.0033   0.0034   0.0076   0.0011   0.0017  -0.0004  -0.01    7.0
2023/11/15 18:36:02.000   46.085023258  -79.346200392   225.4848   1  23   0.0033   0.0034   0.0076   0.0011   0.0017  -0.0004  -0.01    7.0
2023/11/15 18:36:03.000   46.085023182  -79.346200836   225.4833   1  23   0.0033   0.0034   0.0076   0.0011   0.0017  -0.0004  -0.01    7.0
2023/11/15 18:36:04.000   46.085022927  -79.346199541   225.4971   1  23   0.0024   0.0024   0.0053   0.0008   0.0012  -0.0003  -0.01    3.5
2023/11/15 18:36:05.000   46.085019341  -79.346195086   225.4673   1  23   0.0024   0.0024   0.0052   0.0008   0.0009   0.0004  -0.01    3.4
2023/11/15 18:36:06.000   46.085013073  -79.346185106   225.4733   1  23   0.0024   0.0024   0.0052   0.0008   0.0009   0.0004  -0.01    3.7
2023/11/15 18:36:07.000   46.085002013  -79.346173544   225.4475   1  23   0.0024   0.0024   0.0052   0.0008   0.0009   0.0004  -0.01    3.8
2023/11/15 18:36:08.000   46.084990796  -79.346164266   225.4078   1  23   0.0024   0.0024   0.0052   0.0008   0.0009   0.0004  -0.01    3.9
2023/11/15 18:36:09.000   46.084981180  -79.346157051   225.4700   1  23   0.0024   0.0024   0.0052   0.0008   0.0009   0.0004  -0.01    4.0
2023/11/15 18:36:10.000   46.084976522  -79.346153095   225.4655   1  23   0.0024   0.0024   0.0052   0.0008   0.0009   0.0004  -0.01    3.9
2023/11/15 18:36:11.000   46.084976274  -79.346152574   225.4629   1  23   0.0024   0.0024   0.0052   0.0008   0.0009   0.0004  -0.01    3.8
2023/11/15 18:36:12.000   46.084975621  -79.346151097   225.4531   1  23   0.0024   0.0024   0.0052   0.0008   0.0009   0.0004  -0.01    3.8
2023/11/15 18:36:13.000   46.084969441  -79.346143506   225.4594   1  23   0.0024   0.0024   0.0052   0.0008   0.0009   0.0004  -0.01    4.0
2023/11/15 18:36:14.000   46.084960971  -79.346131405   225.3830   1  24   0.0023   0.0024   0.0051   0.0009   0.0009   0.0002  -0.01    4.1
2023/11/15 18:36:15.000   46.084951477  -79.346120238   225.4291   1  23   0.0024   0.0024   0.0052   0.0008   0.0009   0.0004  -0.01    4.3
2023/11/15 18:36:16.000   46.084942100  -79.346108143   225.3438   1  23   0.0024   0.0024   0.0052   0.0008   0.0009   0.0004  -0.01    4.5
2023/11/15 18:36:17.000   46.084933803  -79.346097705   225.3386   1  24   0.0023   0.0024   0.0051   0.0009   0.0010  -0.0001  -0.01    4.5
2023/11/15 18:36:18.000   46.084923765  -79.346088280   225.2821   1  23   0.0024   0.0024   0.0052   0.0008   0.0009   0.0004  -0.01    4.6
2023/11/15 18:36:19.000   46.084914348  -79.346079723   225.3782   1  22   0.0025   0.0024   0.0052   0.0009   0.0010   0.0009  -0.01    4.9
2023/11/15 18:36:20.000   46.084909016  -79.346069739   225.3544   1  23   0.0024   0.0024   0.0052   0.0008   0.0009   0.0004  -0.01    4.7
2023/11/15 18:36:21.000   46.084898937  -79.346060914   225.3153   1  23   0.0024   0.0024   0.0052   0.0008   0.0009   0.0004  -0.01    4.7
2023/11/15 18:36:22.000   46.084888645  -79.346053233   225.2902   1  23   0.0024   0.0024   0.0052   0.0008   0.0009   0.0004  -0.01    4.8
2023/11/15 18:36:23.000   46.084878428  -79.346044433   225.3581   1  23   0.0024   0.0024   0.0052   0.0008   0.0009   0.0004  -0.01    4.9
2023/11/15 18:36:24.000   46.084870713  -79.346034204   225.2720   1  23   0.0024   0.0024   0.0052   0.0008   0.0009   0.0004  -0.01    4.8
2023/11/15 18:36:25.000   46.084862326  -79.346022955   225.3187   1  23   0.0024   0.0024   0.0052   0.0008   0.0009   0.0004  -0.01    4.8
2023/11/15 18:36:26.000   46.084853430  -79.346012677   225.2673   1  23   0.0024   0.0024   0.0052   0.0008   0.0009   0.0004  -0.01    4.9
2023/11/15 18:36:27.000   46.084845643  -79.346003757   225.2874   1  23   0.0024   0.0024   0.0052   0.0008   0.0009   0.0004  -0.01    4.7
2023/11/15 18:36:28.000   46.084841497  -79.345990613   225.2521   1  24   0.0023   0.0024   0.0051   0.0009   0.0010  -0.0001  -0.01    4.7
2023/11/15 18:36:29.000   46.084839893  -79.345977788   225.2573   1  23   0.0024   0.0024   0.0054   0.0008   0.0012  -0.0003  -0.01    4.7
2023/11/15 18:36:30.000   46.084841913  -79.345962972   225.2659   1  23   0.0024   0.0024   0.0052   0.0008   0.0009   0.0004  -0.01    4.6
2023/11/15 18:36:31.000   46.084845805  -79.345947205   225.2423   1  22   0.0024   0.0024   0.0053   0.0008   0.0012  -0.0003  -0.01    4.6
2023/11/15 18:36:32.000   46.084850428  -79.345932599   225.3161   1  23   0.0024   0.0024   0.0052   0.0008   0.0009   0.0004  -0.01    4.6
2023/11/15 18:36:33.000   46.084855320  -79.345917563   225.3060   1  23   0.0024   0.0024   0.0052   0.0008   0.0009   0.0004  -0.01    4.5
2023/11/15 18:36:34.000   46.084860548  -79.345904500   225.3629   1  23   0.0024   0.0024   0.0052   0.0008   0.0009   0.0004  -0.01    4.5
2023/11/15 18:36:35.000   46.084866946  -79.345893365   225.3184   1  23   0.0024   0.0024   0.0052   0.0008   0.0009   0.0004  -0.01    4.5
2023/11/15 18:36:36.000   46.084872660  -79.345882386   225.3847   1  23   0.0024   0.0024   0.0052   0.0008   0.0009   0.0004  -0.01    4.4
2023/11/15 18:36:37.000   46.084873219  -79.345872499   225.4172   1  24   0.0023   0.0024   0.0051   0.0009   0.0010  -0.0002  -0.01    4.4
2023/11/15 18:36:38.000   46.084874341  -79.345873114   225.3879   1  23   0.0024   0.0024   0.0054   0.0008   0.0012  -0.0003  -0.01    4.4
2023/11/15 18:36:39.000   46.084876046  -79.345871444   225.4121   1  23   0.0024   0.0024   0.0052   0.0008   0.0009   0.0004  -0.01    4.3
2023/11/15 18:36:40.000   46.084874383  -79.345870105   225.4320   1  23   0.0024   0.0024   0.0052   0.0008   0.0009   0.0004  -0.01    4.3
2023/11/15 18:36:41.000   46.084875475  -79.345866513   225.4253   1  23   0.0024   0.0025   0.0055   0.0010   0.0008  -0.0009  -0.01    4.8
2023/11/15 18:36:42.000   46.084873352  -79.345875790   225.3852   1  23   0.0024   0.0024   0.0054   0.0008   0.0012  -0.0003  -0.01    4.4
2023/11/15 18:36:43.000   46.084869579  -79.345890904   225.3683   1  23   0.0024   0.0024   0.0054   0.0008   0.0012  -0.0003  -0.01    4.4
2023/11/15 18:36:44.000   46.084865609  -79.345907111   225.3029   1  23   0.0024   0.0024   0.0054   0.0008   0.0012  -0.0003  -0.01    4.4
2023/11/15 18:36:45.000   46.084861439  -79.345923318   225.3360   1  23   0.0024   0.0024   0.0054   0.0008   0.0012  -0.0003  -0.01    4.3
2023/11/15 18:36:46.000   46.084857656  -79.345941855   225.2336   1  23   0.0024   0.0024   0.0054   0.0008   0.0012  -0.0003  -0.01    4.3
2023/11/15 18:36:47.000   46.084853107  -79.345960486   225.3104   1  22   0.0024   0.0024   0.0054   0.0010   0.0003  -0.0008  -0.01    4.4
2023/11/15 18:36:48.000   46.084846605  -79.345978587   225.2982   1  23   0.0024   0.0024   0.0054   0.0008   0.0012  -0.0003  -0.01    4.3
2023/11/15 18:36:49.000   46.084840652  -79.345995984   225.2190   1  24   0.0024   0.0024   0.0053   0.0008   0.0012  -0.0005  -0.01    4.3
2023/11/15 18:36:50.000   46.084834745  -79.346014059   225.2924   1  24   0.0024   0.0024   0.0053   0.0008   0.0012  -0.0005  -0.01    4.2
2023/11/15 18:36:51.000   46.084828527  -79.346031904   225.2112   1  24   0.0024   0.0024   0.0053   0.0008   0.0012  -0.0005  -0.01    3.2
2023/11/15 18:36:52.000   46.084823053  -79.346049788   225.2478   1  23   0.0024   0.0024   0.0053   0.0010   0.0005  -0.0009  -0.01    3.4
2023/11/15 18:36:53.000   46.084816778  -79.346068438   225.2379   1  24   0.0024   0.0024   0.0053   0.0008   0.0012  -0.0005  -0.01    3.7
2023/11/15 18:36:54.000   46.084810642  -79.346086238   225.1599   1  23   0.0024   0.0025   0.0056   0.0008   0.0016  -0.0006  -0.01    4.0
2023/11/15 18:36:55.000   46.084805497  -79.346104016   225.2340   1  23   0.0024   0.0024   0.0054   0.0008   0.0012  -0.0003  -0.01    4.0
2023/11/15 18:36:56.000   46.084801412  -79.346123864   225.1131   1  23   0.0024   0.0024   0.0054   0.0008   0.0012  -0.0003  -0.01    3.9
2023/11/15 18:36:57.000   46.084798722  -79.346142151   225.0518   1  23   0.0024   0.0024   0.0054   0.0008   0.0012  -0.0003  -0.01    3.9
2023/11/15 18:36:58.000   46.084795784  -79.346161994   225.0930   1  23   0.0024   0.0025   0.0053   0.0006   0.0013  -0.0006  -0.01    3.8
2023/11/15 18:36:59.000   46.084790265  -79.346178370   225.0551   1  23   0.0024   0.0024   0.0054   0.0008   0.0012  -0.0003  -0.01    3.8
2023/11/15 18:37:00.000   46.084784261  -79.346193793   225.1813   1  23   0.0024   0.0024   0.0054   0.0008   0.0012  -0.0003  -0.01    3.8
2023/11/15 18:37:01.000   46.084777465  -79.346208848   225.0945   1  23   0.0024   0.0024   0.0054   0.0008   0.0012  -0.0003  -0.01    3.7
2023/11/15 18:37:02.000   46.084770973  -79.346223185   225.1992   1  23   0.0024   0.0024   0.0054   0.0008   0.0012  -0.0003  -0.01    3.7
2023/11/15 18:37:03.000   46.084765741  -79.346239820   225.0971   1  23   0.0024   0.0024   0.0054   0.0008   0.0012  -0.0003  -0.01    3.6
2023/11/15 18:37:04.000   46.084760690  -79.346257505   225.1007   1  23   0.0024   0.0024   0.0054   0.0008   0.0012  -0.0003  -0.01    3.6
2023/11/15 18:37:05.000   46.084756535  -79.346276028   225.0644   1  23   0.0024   0.0024   0.0052   0.0008   0.0008   0.0005  -0.01    3.6
2023/11/15 18:37:06.000   46.084754375  -79.346294990   225.0451   1  23   0.0024   0.0024   0.0052   0.0008   0.0008   0.0005  -0.01    3.6
2023/11/15 18:37:07.000   46.084752845  -79.346314025   225.0384   1  23   0.0024   0.0024   0.0052   0.0008   0.0007   0.0005  -0.01    3.5
2023/11/15 18:37:08.000   46.084752431  -79.346333320   224.9728   1  23   0.0024   0.0025   0.0054   0.0007   0.0009   0.0004  -0.01    3.5
2023/11/15 18:37:09.000   46.084751767  -79.346350493   225.0538   1  22   0.0024   0.0026   0.0057   0.0008   0.0002  -0.0006  -0.01    4.7
2023/11/15 18:37:10.000   46.084751482  -79.346368118   224.9867   1  23   0.0024   0.0024   0.0054   0.0008   0.0012  -0.0003  -0.01    3.1
2023/11/15 18:37:11.000   46.084752072  -79.346384962   225.0664   1  23   0.0024   0.0024   0.0054   0.0008   0.0012  -0.0003  -0.01    4.3
2023/11/15 18:37:12.000   46.084751963  -79.346401720   225.0111   1  24   0.0024   0.0024   0.0053   0.0008   0.0013  -0.0005  -0.01    4.3
2023/11/15 18:37:13.000   46.084750070  -79.346416925   225.0353   1  23   0.0024   0.0024   0.0054   0.0008   0.0012  -0.0003  -0.01    4.2
2023/11/15 18:37:14.000   46.084746147  -79.346433520   224.9878   1  24   0.0024   0.0024   0.0053   0.0008   0.0013  -0.0005  -0.01    4.2
2023/11/15 18:37:15.000   46.084741863  -79.346449799   225.0147   1  23   0.0024   0.0025   0.0055   0.0010   0.0009  -0.0011  -0.01    4.2
2023/11/15 18:37:16.000   46.084737685  -79.346464129   225.0073   1  24   0.0024   0.0024   0.0053   0.0008   0.0013  -0.0005  -0.01    4.0
2023/11/15 18:37:17.000   46.084735376  -79.346477775   225.0085   1  23   0.0024   0.0024   0.0054   0.0008   0.0012  -0.0003  -0.01    3.9
2023/11/15 18:37:18.000   46.084735577  -79.346487418   224.9631   1  23   0.0024   0.0024   0.0054   0.0008   0.0012  -0.0003  -0.01    3.9
2023/11/15 18:37:19.000   46.084735505  -79.346491419   225.0013   1  24   0.0024   0.0024   0.0053   0.0008   0.0013  -0.0005  -0.01    3.8
2023/11/15 18:37:20.000   46.084735964  -79.346492182   224.9914   1  23   0.0024   0.0024   0.0054   0.0008   0.0012  -0.0003  -0.01    3.7
2023/11/15 18:37:21.000   46.084735251  -79.346492004   224.9887   1  24   0.0023   0.0024   0.0051   0.0009   0.0010  -0.0002  -0.01    3.6
2023/11/15 18:37:22.000   46.084734949  -79.346492335   224.9911   1  24   0.0023   0.0024   0.0051   0.0009   0.0010  -0.0002  -0.01    3.6
2023/11/15 18:37:23.000   46.084735408  -79.346492168   224.9912   1  24   0.0023   0.0024   0.0051   0.0009   0.0010  -0.0002  -0.01    3.6
2023/11/15 18:37:24.000   46.084736360  -79.346491829   224.9821   1  23   0.0024   0.0024   0.0052   0.0008   0.0009   0.0004  -0.01    3.5
2023/11/15 18:37:25.000   46.084735973  -79.346491615   224.9932   1  23   0.0024   0.0024   0.0052   0.0009   0.0009   0.0003  -0.01    3.4
2023/11/15 18:37:26.000   46.084736543  -79.346492290   224.9754   1  24   0.0024   0.0024   0.0052   0.0009   0.0009  -0.0005  -0.01    3.4
2023/11/15 18:37:27.000   46.084735403  -79.346498080   224.9741   1  23   0.0024   0.0024   0.0053   0.0009   0.0008  -0.0002  -0.01    3.3
2023/11/15 18:37:28.000   46.084730535  -79.346506773   225.0227   1  23   0.0024   0.0024   0.0053   0.0009   0.0007  -0.0004  -0.01    3.3
2023/11/15 18:37:29.000   46.084725764  -79.346516913   224.9675   1  23   0.0024   0.0024   0.0053   0.0010   0.0006  -0.0006  -0.01    3.3
2023/11/15 18:37:30.000   46.084725258  -79.346530458   224.9621   1  23   0.0025   0.0025   0.0055   0.0011  -0.0006  -0.0010  -0.01    3.3
2023/11/15 18:37:31.000   46.084724685  -79.346533347   224.9691   1  24   0.0024   0.0025   0.0055   0.0010   0.0009  -0.0010  -0.01    3.4
2023/11/15 18:37:32.000   46.084719945  -79.346539205   224.9729   1  23   0.0024   0.0025   0.0054   0.0010   0.0004  -0.0007  -0.01    3.4
2023/11/15 18:37:33.000   46.084713788  -79.346544553   224.9780   1  24   0.0024   0.0024   0.0053   0.0010   0.0005  -0.0008  -0.01    3.5
2023/11/15 18:37:34.000   46.084711758  -79.346549669   224.9452   1  23   0.0024   0.0025   0.0054   0.0010   0.0004  -0.0007  -0.01    3.5
2023/11/15 18:37:35.000   46.084704027  -79.346549839   224.9707   1  23   0.0024   0.0025   0.0054   0.0011  -0.0003  -0.0009  -0.01    3.5
2023/11/15 18:37:36.000   46.084697556  -79.346551786   224.9748   1  23   0.0024   0.0024   0.0052   0.0009   0.0008   0.0001  -0.01    3.1
2023/11/15 18:37:37.000   46.084694070  -79.346550532   224.9714   1  23   0.0024   0.0024   0.0052   0.0009   0.0008   0.0003  -0.01    3.5
2023/11/15 18:37:38.000   46.084686906  -79.346551095   224.9374   1  24   0.0024   0.0024   0.0051   0.0009   0.0009  -0.0003  -0.01    3.6
2023/11/15 18:37:39.000   46.084683879  -79.346551350   224.9885   1  24   0.0023   0.0024   0.0051   0.0009   0.0010  -0.0002  -0.01    3.4
2023/11/15 18:37:40.000   46.084682310  -79.346550423   224.9477   1  24   0.0023   0.0024   0.0051   0.0009   0.0010  -0.0002  -0.01    3.4
2023/11/15 18:37:41.000   46.084677386  -79.346545270   224.9215   1  24   0.0023   0.0024   0.0051   0.0009   0.0010  -0.0002  -0.01    3.5
2023/11/15 18:37:42.000   46.084675598  -79.346543751   224.9216   1  23   0.0024   0.0024   0.0052   0.0008   0.0009   0.0004  -0.01    3.5
2023/11/15 18:37:43.000   46.084670940  -79.346540804   224.9188   1  24   0.0023   0.0024   0.0051   0.0009   0.0010  -0.0002  -0.01    3.4
2023/11/15 18:37:44.000   46.084666374  -79.346532120   224.9060   1  24   0.0024   0.0024   0.0053   0.0008   0.0013  -0.0005  -0.01    3.5
2023/11/15 18:37:45.000   46.084662987  -79.346527593   224.8877   1  24   0.0023   0.0024   0.0051   0.0009   0.0010  -0.0002  -0.01    3.4
2023/11/15 18:37:46.000   46.084663775  -79.346519112   224.9198   1  24   0.0023   0.0024   0.0051   0.0009   0.0010  -0.0002  -0.01    3.5
2023/11/15 18:37:47.000   46.084667819  -79.346511399   224.8990   1  24   0.0023   0.0024   0.0051   0.0009   0.0010  -0.0002  -0.01    3.5
2023/11/15 18:37:48.000   46.084668859  -79.346508471   224.9203   1  24   0.0023   0.0024   0.0051   0.0009   0.0010  -0.0001  -0.01    3.4
2023/11/15 18:37:49.000   46.084667916  -79.346499944   224.9212   1  24   0.0024   0.0024   0.0053   0.0008   0.0013  -0.0005  -0.01    3.5
2023/11/15 18:37:50.000   46.084668947  -79.346492625   224.9001   1  24   0.0024   0.0024   0.0053   0.0010   0.0005  -0.0008  -0.01    3.6
2023/11/15 18:37:51.000   46.084670079  -79.346489930   224.8973   1  24   0.0023   0.0024   0.0051   0.0009   0.0010  -0.0001  -0.01    3.5
2023/11/15 18:37:52.000   46.084673965  -79.346481279   224.9247   1  24   0.0023   0.0024   0.0051   0.0009   0.0010  -0.0001  -0.01    3.5
2023/11/15 18:37:53.000   46.084678095  -79.346473367   224.9680   1  24   0.0023   0.0024   0.0051   0.0009   0.0010   0.0000  -0.01    3.5
2023/11/15 18:37:54.000   46.084681760  -79.346473482   225.0582   1  23   0.0024   0.0024   0.0052   0.0008   0.0009   0.0004  -0.01    3.5
2023/11/15 18:37:55.000   46.084681711  -79.346474014   225.0655   1  23   0.0024   0.0024   0.0052   0.0008   0.0009   0.0004  -0.01    3.5
2023/11/15 18:37:56.000   46.084686538  -79.346477423   225.0600   1  23   0.0024   0.0024   0.0052   0.0008   0.0009   0.0004  -0.01    3.5
2023/11/15 18:37:57.000   46.084690238  -79.346483639   225.1545   1  23   0.0024   0.0024   0.0052   0.0008   0.0009   0.0004  -0.01    3.5
2023/11/15 18:37:58.000   46.084691188  -79.346483127   225.1832   1  23   0.0024   0.0024   0.0052   0.0008   0.0009   0.0004  -0.01    3.5
2023/11/15 18:37:59.000   46.084691382  -79.346483013   225.1708   1  23   0.0024   0.0024   0.0052   0.0008   0.0009   0.0004  -0.01    3.6
2023/11/15 18:38:00.000   46.084693040  -79.346490823   224.9507   1  24   0.0024   0.0024   0.0053   0.0008   0.0012  -0.0005  -0.01    3.6
2023/11/15 18:38:01.000   46.084695227  -79.346502502   225.0704   1  23   0.0024   0.0024   0.0052   0.0008   0.0009   0.0004  -0.01    3.6
2023/11/15 18:38:02.000   46.084694159  -79.346503236   225.0726   1  23   0.0024   0.0024   0.0052   0.0008   0.0009   0.0004  -0.01    3.5
2023/11/15 18:38:03.000   46.084693352  -79.346510614   225.1053   1  23   0.0024   0.0024   0.0052   0.0008   0.0009   0.0004  -0.01    3.5
2023/11/15 18:38:04.000   46.084691553  -79.346515488   225.1049   1  23   0.0024   0.0024   0.0052   0.0008   0.0009   0.0004  -0.01    3.5
2023/11/15 18:38:05.000   46.084691175  -79.346517854   225.1039   1  23   0.0024   0.0024   0.0052   0.0008   0.0009   0.0004  -0.01    3.6
2023/11/15 18:38:06.000   46.084691216  -79.346527512   225.0842   1  23   0.0024   0.0024   0.0052   0.0008   0.0009   0.0004  -0.01    3.6
2023/11/15 18:38:07.000   46.084690520  -79.346530467   225.0939   1  23   0.0024   0.0024   0.0052   0.0008   0.0009   0.0004  -0.01    3.6
2023/11/15 18:38:08.000   46.084692191  -79.346532923   225.1063   1  23   0.0024   0.0024   0.0052   0.0008   0.0009   0.0004  -0.01    3.6
2023/11/15 18:38:09.000   46.084687388  -79.346539021   224.9871   1  23   0.0024   0.0024   0.0052   0.0008   0.0009   0.0004  -0.01    3.6
2023/11/15 18:38:10.000   46.084682006  -79.346538200   224.9214   1  24   0.0024   0.0024   0.0052   0.0009   0.0009   0.0003  -0.01    3.6
2023/11/15 18:38:11.000   46.084681571  -79.346525354   224.8627   1  23   0.0024   0.0024   0.0052   0.0008   0.0009   0.0004  -0.01    3.7
2023/11/15 18:38:12.000   46.084682848  -79.346518856   224.8364   1  23   0.0024   0.0024   0.0052   0.0008   0.0009   0.0004  -0.01    3.6
2023/11/15 18:38:13.000   46.084683691  -79.346507872   224.9177   1  24   0.0024   0.0024   0.0052   0.0009   0.0009   0.0004  -0.01    3.7
2023/11/15 18:38:14.000   46.084686220  -79.346498500   224.8954   1  24   0.0024   0.0024   0.0052   0.0009   0.0009   0.0004  -0.01    3.7
2023/11/15 18:38:15.000   46.084687764  -79.346486972   224.9813   1  24   0.0024   0.0024   0.0052   0.0009   0.0009   0.0003  -0.01    3.7
2023/11/15 18:38:16.000   46.084690152  -79.346478416   225.0217   1  24   0.0023   0.0024   0.0052   0.0009   0.0010   0.0002  -0.01    3.7
2023/11/15 18:38:17.000   46.084691421  -79.346476546   225.0357   1  23   0.0024   0.0024   0.0052   0.0008   0.0009   0.0004  -0.01    3.7
2023/11/15 18:38:18.000   46.084694107  -79.346468520   225.0042   1  24   0.0023   0.0024   0.0052   0.0009   0.0010   0.0001  -0.01    3.7
2023/11/15 18:38:19.000   46.084701172  -79.346462971   225.0186   1  24   0.0023   0.0024   0.0051   0.0009   0.0010   0.0001  -0.01    3.7
2023/11/15 18:38:20.000   46.084703509  -79.346460326   225.0314   1  24   0.0024   0.0024   0.0053   0.0010   0.0005  -0.0008  -0.01    3.8
2023/11/15 18:38:21.000   46.084705750  -79.346458763   224.9937   1  24   0.0023   0.0024   0.0051   0.0009   0.0010  -0.0000  -0.01    3.7
2023/11/15 18:38:22.000   46.084711692  -79.346455285   224.9654   1  24   0.0024   0.0024   0.0053   0.0008   0.0013  -0.0005  -0.01    3.7
2023/11/15 18:38:23.000   46.084712706  -79.346454550   224.9659   1  23   0.0024   0.0024   0.0054   0.0008   0.0012  -0.0003  -0.01    3.7
2023/11/15 18:38:24.000   46.084712923  -79.346451586   224.9737   1  23   0.0024   0.0024   0.0054   0.0008   0.0012  -0.0003  -0.01    3.7
2023/11/15 18:38:25.000   46.084711183  -79.346445404   224.9689   1  23   0.0024   0.0024   0.0052   0.0008   0.0009   0.0004  -0.01    3.7
2023/11/15 18:38:26.000   46.084710027  -79.346445183   224.9560   1  24   0.0023   0.0024   0.0051   0.0009   0.0010  -0.0001  -0.01    3.7
2023/11/15 18:38:27.000   46.084705542  -79.346444029   225.0033   1  23   0.0024   0.0024   0.0052   0.0008   0.0009   0.0004  -0.01    3.7
2023/11/15 18:38:28.000   46.084703732  -79.346443120   225.0367   1  23   0.0024   0.0024   0.0052   0.0008   0.0009   0.0004  -0.01    3.6
2023/11/15 18:38:29.000   46.084700145  -79.346440592   224.9616   1  23   0.0024   0.0024   0.0052   0.0008   0.0009   0.0004  -0.01    3.6
2023/11/15 18:38:30.000   46.084693647  -79.346436351   224.8534   1  23   0.0024   0.0024   0.0052   0.0008   0.0009   0.0004  -0.01    3.6
2023/11/15 18:38:31.000   46.084693372  -79.346433980   224.8340   1  23   0.0024   0.0024   0.0054   0.0008   0.0012  -0.0003  -0.01    3.6
2023/11/15 18:38:32.000   46.084687069  -79.346426742   224.8874   1  24   0.0024   0.0024   0.0053   0.0008   0.0013  -0.0005  -0.01    3.6
2023/11/15 18:38:33.000   46.084684182  -79.346422781   224.9402   1  24   0.0023   0.0024   0.0051   0.0009   0.0010  -0.0000  -0.01    3.6
2023/11/15 18:38:34.000   46.084683934  -79.346419974   224.9354   1  24   0.0023   0.0024   0.0051   0.0009   0.0010  -0.0000  -0.01    3.6
2023/11/15 18:38:35.000   46.084688429  -79.346409879   224.9180   1  24   0.0023   0.0024   0.0051   0.0009   0.0010   0.0000  -0.01    3.6
2023/11/15 18:38:36.000   46.084692150  -79.346403070   224.9437   1  24   0.0024   0.0024   0.0053   0.0008   0.0013  -0.0005  -0.01    3.6
2023/11/15 18:38:37.000   46.084693498  -79.346403208   224.9493   1  24   0.0023   0.0024   0.0052   0.0009   0.0010  -0.0001  -0.01    3.7
2023/11/15 18:38:38.000   46.084698571  -79.346404873   224.9347   1  24   0.0023   0.0024   0.0052   0.0009   0.0010   0.0001  -0.01    3.2
2023/11/15 18:38:39.000   46.084700850  -79.346406971   224.9983   1  24   0.0023   0.0024   0.0052   0.0009   0.0010   0.0001  -0.01    3.3
2023/11/15 18:38:40.000   46.084701912  -79.346408388   225.0083   1  24   0.0023   0.0024   0.0052   0.0009   0.0010   0.0001  -0.01    3.4
2023/11/15 18:38:41.000   46.084708068  -79.346406611   225.0420   1  24   0.0024   0.0024   0.0052   0.0009   0.0010   0.0002  -0.01    3.5
2023/11/15 18:38:42.000   46.084710878  -79.346407903   225.1749   1  23   0.0024   0.0025   0.0054   0.0010   0.0005  -0.0008  -0.01    3.7
2023/11/15 18:38:43.000   46.084711731  -79.346406421   225.1793   1  23   0.0024   0.0024   0.0052   0.0008   0.0010   0.0004  -0.01    3.7
2023/11/15 18:38:44.000   46.084714696  -79.346407372   225.0320   1  23   0.0024   0.0024   0.0053   0.0008   0.0010   0.0004  -0.01    3.7
2023/11/15 18:38:45.000   46.084721507  -79.346408435   225.0486   1  23   0.0024   0.0024   0.0053   0.0008   0.0010   0.0004  -0.01    3.7
2023/11/15 18:38:46.000   46.084722451  -79.346408154   225.0315   1  23   0.0024   0.0024   0.0053   0.0008   0.0010   0.0004  -0.01    3.7
2023/11/15 18:38:47.000   46.084725903  -79.346409780   224.9979   1  23   0.0024   0.0024   0.0053   0.0008   0.0010   0.0003  -0.01    3.7
2023/11/15 18:38:48.000   46.084730522  -79.346412791   224.9897   1  23   0.0024   0.0025   0.0056   0.0009   0.0009  -0.0010  -0.01    4.0
2023/11/15 18:38:49.000   46.084731729  -79.346413636   224.9893   1  23   0.0024   0.0025   0.0054   0.0008   0.0013  -0.0003  -0.01    3.7
2023/11/15 18:38:50.000   46.084737339  -79.346414919   224.9820   1  23   0.0024   0.0024   0.0053   0.0008   0.0011   0.0003  -0.01    3.7
2023/11/15 18:38:51.000   46.084743135  -79.346417656   224.9558   1  23   0.0024   0.0024   0.0054   0.0008   0.0011  -0.0001  -0.01    3.7
2023/11/15 18:38:52.000   46.084743526  -79.346415742   224.9765   1  23   0.0024   0.0025   0.0055   0.0008   0.0014  -0.0005  -0.01    3.8
2023/11/15 18:38:53.000   46.084740419  -79.346410154   225.0080   1  23   0.0024   0.0025   0.0054   0.0008   0.0013  -0.0003  -0.01    3.8
2023/11/15 18:38:54.000   46.084737270  -79.346404519   224.9815   1  23   0.0024   0.0025   0.0055   0.0008   0.0013  -0.0004  -0.01    3.8
2023/11/15 18:38:55.000   46.084734068  -79.346403909   225.0971   1  23   0.0024   0.0024   0.0054   0.0008   0.0012  -0.0003  -0.01    3.8
2023/11/15 18:38:56.000   46.084734360  -79.346402912   225.1132   1  23   0.0024   0.0025   0.0055   0.0008   0.0013  -0.0004  -0.01    3.8
2023/11/15 18:38:57.000   46.084730497  -79.346397881   225.1747   1  23   0.0024   0.0024   0.0054   0.0008   0.0012  -0.0003  -0.01    3.8
2023/11/15 18:38:58.000   46.084731242  -79.346397326   225.1512   1  23   0.0024   0.0024   0.0053   0.0008   0.0011   0.0002  -0.01    3.8
2023/11/15 18:38:59.000   46.084730809  -79.346395800   225.0570   1  23   0.0024   0.0024   0.0053   0.0008   0.0010   0.0003  -0.01    3.8
2023/11/15 18:39:00.000   46.084725720  -79.346388230   225.0043   1  23   0.0024   0.0024   0.0053   0.0008   0.0010   0.0003  -0.01    3.8
2023/11/15 18:39:01.000   46.084725488  -79.346385529   224.9954   1  23   0.0024   0.0024   0.0053   0.0008   0.0010   0.0004  -0.01    3.8
2023/11/15 18:39:02.000   46.084720483  -79.346386321   225.0302   1  23   0.0024   0.0024   0.0053   0.0008   0.0010   0.0004  -0.01    3.7
2023/11/15 18:39:03.000   46.084715905  -79.346384512   225.0901   1  23   0.0024   0.0024   0.0052   0.0008   0.0009   0.0004  -0.01    3.1
2023/11/15 18:39:04.000   46.084712996  -79.346384013   225.0101   1  23   0.0024   0.0024   0.0052   0.0008   0.0009   0.0004  -0.01    3.4
2023/11/15 18:39:05.000   46.084712903  -79.346383089   225.0265   1  23   0.0024   0.0024   0.0052   0.0009   0.0009   0.0004  -0.01    3.7
2023/11/15 18:39:06.000   46.084711295  -79.346379467   224.9626   1  23   0.0024   0.0024   0.0052   0.0009   0.0009   0.0004  -0.01    3.7
2023/11/15 18:39:07.000   46.084708990  -79.346371368   224.9820   1  23   0.0024   0.0024   0.0052   0.0009   0.0009   0.0004  -0.01    3.7
2023/11/15 18:39:08.000   46.084708701  -79.346369365   224.9609   1  23   0.0024   0.0024   0.0052   0.0009   0.0009   0.0004  -0.01    3.7
2023/11/15 18:39:09.000   46.084710205  -79.346368789   224.9777   1  23   0.0024   0.0024   0.0052   0.0009   0.0009   0.0004  -0.01    3.7
2023/11/15 18:39:10.000   46.084714815  -79.346364744   225.0593   1  23   0.0024   0.0024   0.0052   0.0009   0.0009   0.0004  -0.01    3.7
2023/11/15 18:39:11.000   46.084717233  -79.346360212   225.0389   1  23   0.0024   0.0024   0.0052   0.0009   0.0009   0.0004  -0.01    3.6
2023/11/15 18:39:12.000   46.084716944  -79.346360340   225.0656   1  22   0.0025   0.0025   0.0056   0.0011  -0.0009  -0.0011  -0.01    4.1
2023/11/15 18:39:13.000   46.084718050  -79.346362185   225.0784   1  23   0.0024   0.0024   0.0052   0.0009   0.0009   0.0004  -0.01    3.6
2023/11/15 18:39:14.000   46.084719819  -79.346352983   225.0846   1  23   0.0024   0.0024   0.0052   0.0009   0.0009   0.0004  -0.01    3.6
2023/11/15 18:39:15.000   46.084720542  -79.346352882   225.0917   1  23   0.0024   0.0024   0.0052   0.0009   0.0009   0.0004  -0.01    3.6
2023/11/15 18:39:16.000   46.084720471  -79.346351155   225.1034   1  23   0.0024   0.0024   0.0052   0.0009   0.0009   0.0004  -0.01    3.6
2023/11/15 18:39:17.000   46.084722907  -79.346344639   225.1429   1  23   0.0024   0.0024   0.0052   0.0009   0.0009   0.0004  -0.01    3.6
2023/11/15 18:39:18.000   46.084723612  -79.346343515   225.1684   1  23   0.0024   0.0024   0.0052   0.0009   0.0009   0.0004  -0.01    3.6
2023/11/15 18:39:19.000   46.084724159  -79.346340617   225.1549   1  23   0.0024   0.0024   0.0052   0.0009   0.0009   0.0004  -0.01    3.6
2023/11/15 18:39:20.000   46.084728738  -79.346334127   225.0747   1  23   0.0024   0.0024   0.0052   0.0009   0.0009   0.0004  -0.01    3.5
2023/11/15 18:39:21.000   46.084731055  -79.346336127   225.0327   1  23   0.0024   0.0024   0.0052   0.0009   0.0009   0.0004  -0.01    3.6
2023/11/15 18:39:22.000   46.084733848  -79.346336963   224.9990   1  23   0.0024   0.0024   0.0052   0.0009   0.0009   0.0004  -0.01    3.6
2023/11/15 18:39:23.000   46.084740165  -79.346337362   225.0270   1  23   0.0024   0.0025   0.0054   0.0010   0.0004  -0.0007  -0.01    3.8
2023/11/15 18:39:24.000   46.084742291  -79.346337206   225.0357   1  23   0.0024   0.0024   0.0052   0.0009   0.0009   0.0004  -0.01    3.6
2023/11/15 18:39:25.000   46.084747907  -79.346339411   225.0052   1  23   0.0024   0.0024   0.0052   0.0009   0.0009   0.0004  -0.01    3.6
2023/11/15 18:39:26.000   46.084754771  -79.346345886   225.0320   1  23   0.0024   0.0024   0.0052   0.0009   0.0009   0.0004  -0.01    3.6
2023/11/15 18:39:27.000   46.084755711  -79.346346775   225.0162   1  23   0.0024   0.0024   0.0052   0.0009   0.0009   0.0004  -0.01    3.6
2023/11/15 18:39:28.000   46.084757914  -79.346344358   224.9874   1  23   0.0024   0.0024   0.0052   0.0009   0.0009   0.0004  -0.01    3.6
2023/11/15 18:39:29.000   46.084760770  -79.346338596   225.0298   1  23   0.0024   0.0024   0.0052   0.0009   0.0009   0.0004  -0.01    3.6
2023/11/15 18:39:30.000   46.084762246  -79.346336504   225.0386   1  23   0.0024   0.0024   0.0052   0.0009   0.0009   0.0004  -0.01    3.6
2023/11/15 18:39:31.000   46.084766674  -79.346329125   225.0550   1  23   0.0024   0.0024   0.0052   0.0009   0.0009   0.0004  -0.01    3.6
2023/11/15 18:39:32.000   46.084771960  -79.346326126   225.0645   1  23   0.0024   0.0024   0.0052   0.0009   0.0009   0.0004  -0.01    3.6
2023/11/15 18:39:33.000   46.084772193  -79.346324656   225.0542   1  23   0.0024   0.0024   0.0052   0.0009   0.0009   0.0004  -0.01    3.5
2023/11/15 18:39:34.000   46.084765446  -79.346323837   225.0837   1  23   0.0024   0.0025   0.0054   0.0010   0.0004  -0.0007  -0.01    3.8
2023/11/15 18:39:35.000   46.084759612  -79.346319834   225.0795   1  23   0.0024   0.0024   0.0052   0.0009   0.0009   0.0004  -0.01    3.5
2023/11/15 18:39:36.000   46.084758753  -79.346318885   225.0760   1  23   0.0024   0.0024   0.0052   0.0009   0.0009   0.0004  -0.01    3.5
2023/11/15 18:39:37.000   46.084758530  -79.346318205   225.0668   1  23   0.0024   0.0024   0.0052   0.0009   0.0009   0.0004  -0.01    3.5
2023/11/15 18:39:38.000   46.084753087  -79.346314824   225.0629   1  23   0.0024   0.0025   0.0054   0.0010   0.0004  -0.0007  -0.01    3.7
2023/11/15 18:39:39.000   46.084751891  -79.346312436   225.0570   1  23   0.0024   0.0024   0.0052   0.0009   0.0009   0.0004  -0.01    3.5
2023/11/15 18:39:40.000   46.084750130  -79.346311864   225.0421   1  23   0.0024   0.0025   0.0054   0.0010   0.0004  -0.0007  -0.01    3.7
2023/11/15 18:39:41.000   46.084743715  -79.346317247   225.0613   1  23   0.0024   0.0025   0.0054   0.0010   0.0004  -0.0007  -0.01    3.7
2023/11/15 18:39:42.000   46.084741577  -79.346318231   225.0682   1  23   0.0024   0.0024   0.0052   0.0009   0.0009   0.0004  -0.01    3.5
2023/11/15 18:39:43.000   46.084741162  -79.346318102   225.0654   1  23   0.0024   0.0024   0.0052   0.0009   0.0009   0.0004  -0.01    3.5
2023/11/15 18:39:44.000   46.084734865  -79.346321686   225.1222   1  23   0.0024   0.0024   0.0052   0.0009   0.0009   0.0004  -0.01    3.4
2023/11/15 18:39:45.000   46.084732792  -79.346317931   225.1215   1  23   0.0024   0.0024   0.0052   0.0009   0.0009   0.0004  -0.01    3.4
2023/11/15 18:39:46.000   46.084732525  -79.346317352   225.0889   1  23   0.0024   0.0024   0.0052   0.0009   0.0009   0.0004  -0.01    3.4
2023/11/15 18:39:47.000   46.084731318  -79.346314392   225.0426   1  23   0.0024   0.0025   0.0054   0.0010   0.0004  -0.0007  -0.01    3.6
2023/11/15 18:39:48.000   46.084729707  -79.346305782   225.0518   1  23   0.0024   0.0024   0.0052   0.0009   0.0009   0.0004  -0.01    3.4
2023/11/15 18:39:49.000   46.084729123  -79.346303845   225.0546   1  23   0.0024   0.0024   0.0052   0.0009   0.0009   0.0004  -0.01    3.4
2023/11/15 18:39:50.000   46.084729116  -79.346301995   225.0491   1  23   0.0024   0.0024   0.0052   0.0009   0.0009   0.0004  -0.01    3.4
2023/11/15 18:39:51.000   46.084728891  -79.346297770   225.0507   1  23   0.0024   0.0024   0.0052   0.0009   0.0009   0.0004  -0.01    3.4
2023/11/15 18:39:52.000   46.084729491  -79.346295833   225.0532   1  23   0.0024   0.0024   0.0052   0.0009   0.0009   0.0004  -0.01    3.4
2023/11/15 18:39:53.000   46.084723236  -79.346292314   225.0809   1  23   0.0024   0.0024   0.0052   0.0009   0.0009   0.0004  -0.01    3.4
2023/11/15 18:39:54.000   46.084721176  -79.346288798   225.0301   1  23   0.0024   0.0024   0.0052   0.0009   0.0009   0.0004  -0.01    3.4
2023/11/15 18:39:55.000   46.084719320  -79.346287624   225.0175   1  23   0.0024   0.0024   0.0052   0.0009   0.0009   0.0004  -0.01    3.4
2023/11/15 18:39:56.000   46.084712181  -79.346284851   225.0039   1  23   0.0024   0.0024   0.0052   0.0009   0.0009   0.0004  -0.01    3.4
2023/11/15 18:39:57.000   46.084709602  -79.346282147   225.0283   1  23   0.0024   0.0024   0.0052   0.0009   0.0009   0.0004  -0.01    3.4
2023/11/15 18:39:58.000   46.084708604  -79.346277005   224.9706   1  23   0.0024   0.0024   0.0052   0.0009   0.0009   0.0004  -0.01    3.4
2023/11/15 18:39:59.000   46.084707794  -79.346267488   224.9952   1  23   0.0024   0.0024   0.0052   0.0009   0.0009   0.0004  -0.01    3.4
2023/11/15 18:40:00.000   46.084707899  -79.346263499   225.0106   1  23   0.0024   0.0024   0.0052   0.0009   0.0009   0.0004  -0.01    3.4
2023/11/15 18:40:01.000   46.084712701  -79.346256952   225.0421   1  23   0.0024   0.0024   0.0052   0.0009   0.0009   0.0005  -0.01    3.4
2023/11/15 18:40:02.000   46.084717759  -79.346256035   225.0564   1  23   0.0024   0.0024   0.0053   0.0009   0.0009   0.0004  -0.01    3.4
2023/11/15 18:40:03.000   46.084719920  -79.346255734   225.0528   1  23   0.0024   0.0024   0.0053   0.0009   0.0009   0.0004  -0.01    3.4
2023/11/15 18:40:04.000   46.084726026  -79.346258145   225.0479   1  23   0.0024   0.0024   0.0053   0.0009   0.0009   0.0004  -0.01    3.4
2023/11/15 18:40:05.000   46.084728482  -79.346260859   225.0623   1  23   0.0024   0.0024   0.0053   0.0009   0.0009   0.0004  -0.01    3.4
2023/11/15 18:40:06.000   46.084730835  -79.346262410   225.0433   1  23   0.0024   0.0024   0.0053   0.0009   0.0009   0.0003  -0.01    3.4
2023/11/15 18:40:07.000   46.084736874  -79.346264659   225.0381   1  23   0.0024   0.0024   0.0053   0.0009   0.0009   0.0003  -0.01    3.4
2023/11/15 18:40:08.000   46.084739979  -79.346269242   225.0617   1  23   0.0024   0.0024   0.0053   0.0009   0.0009   0.0004  -0.01    3.4
2023/11/15 18:40:09.000   46.084741063  -79.346268348   225.0548   1  23   0.0024   0.0024   0.0053   0.0009   0.0008   0.0002  -0.01    3.4
2023/11/15 18:40:10.000   46.084747048  -79.346264110   225.0720   1  23   0.0024   0.0024   0.0053   0.0009   0.0008   0.0002  -0.01    3.3
2023/11/15 18:40:11.000   46.084749655  -79.346262305   225.1197   1  23   0.0024   0.0025   0.0055   0.0010  -0.0003  -0.0009  -0.01    3.6
2023/11/15 18:40:12.000   46.084751247  -79.346262666   225.1228   1  23   0.0024   0.0025   0.0055   0.0011  -0.0003  -0.0009  -0.01    3.6
2023/11/15 18:40:13.000   46.084757942  -79.346262092   225.0912   1  23   0.0024   0.0025   0.0055   0.0010   0.0001  -0.0009  -0.01    3.3
2023/11/15 18:40:14.000   46.084759573  -79.346262355   225.0999   1  23   0.0024   0.0024   0.0053   0.0009   0.0008  -0.0003  -0.01    3.3
2023/11/15 18:40:15.000   46.084764288  -79.346259757   225.0851   1  23   0.0024   0.0024   0.0053   0.0009   0.0007  -0.0004  -0.01    3.3
2023/11/15 18:40:16.000   46.084770463  -79.346257078   225.1112   1  23   0.0024   0.0024   0.0054   0.0009   0.0006  -0.0005  -0.01    3.3
2023/11/15 18:40:17.000   46.084771899  -79.346255461   225.1236   1  23   0.0024   0.0025   0.0054   0.0010   0.0003  -0.0008  -0.01    3.3
2023/11/15 18:40:18.000   46.084775226  -79.346255342   225.0722   1  23   0.0024   0.0025   0.0055   0.0010   0.0003  -0.0008  -0.01    3.5
2023/11/15 18:40:19.000   46.084782794  -79.346254481   225.1691   1  23   0.0024   0.0024   0.0054   0.0009   0.0006  -0.0005  -0.01    3.5
2023/11/15 18:40:20.000   46.084785011  -79.346255321   225.1541   1  23   0.0024   0.0024   0.0053   0.0009   0.0007  -0.0004  -0.01    3.5
2023/11/15 18:40:21.000   46.084783806  -79.346251131   225.1228   1  23   0.0024   0.0024   0.0053   0.0009   0.0008  -0.0003  -0.01    3.5
2023/11/15 18:40:22.000   46.084782767  -79.346243445   225.1767   1  23   0.0024   0.0024   0.0053   0.0009   0.0008  -0.0003  -0.01    3.5
2023/11/15 18:40:23.000   46.084777006  -79.346241636   225.1817   1  23   0.0024   0.0024   0.0053   0.0009   0.0007  -0.0003  -0.01    3.5
2023/11/15 18:40:24.000   46.084776747  -79.346239885   225.1767   1  23   0.0024   0.0024   0.0054   0.0009   0.0007  -0.0003  -0.01    3.0
2023/11/15 18:40:25.000   46.084772843  -79.346235588   225.1653   1  22   0.0024   0.0024   0.0055   0.0010   0.0004  -0.0006  -0.01    3.6
2023/11/15 18:40:26.000   46.084771536  -79.346231420   225.1754   1  22   0.0024   0.0024   0.0054   0.0010   0.0004  -0.0006  -0.01    3.8
2023/11/15 18:40:27.000   46.084770582  -79.346229259   225.1664   1  22   0.0024   0.0024   0.0054   0.0010   0.0004  -0.0006  -0.01    3.8
2023/11/15 18:40:28.000   46.084768774  -79.346220170   225.1454   1  22   0.0024   0.0024   0.0054   0.0010   0.0005  -0.0006  -0.01    3.7
2023/11/15 18:40:29.000   46.084770611  -79.346212229   225.1288   1  23   0.0024   0.0024   0.0054   0.0009   0.0007  -0.0003  -0.01    3.7
2023/11/15 18:40:30.000   46.084770784  -79.346212246   225.1137   1  23   0.0024   0.0024   0.0053   0.0009   0.0008   0.0001  -0.01    3.7
2023/11/15 18:40:31.000   46.084767546  -79.346215459   225.0921   1  23   0.0024   0.0025   0.0055   0.0010  -0.0004  -0.0009  -0.01    3.9
2023/11/15 18:40:32.000   46.084762566  -79.346221290   225.1185   1  23   0.0024   0.0024   0.0053   0.0009   0.0008   0.0001  -0.01    3.7
2023/11/15 18:40:33.000   46.084761130  -79.346222665   225.1142   1  23   0.0024   0.0024   0.0054   0.0009   0.0007  -0.0003  -0.01    3.7
2023/11/15 18:40:34.000   46.084757399  -79.346229378   225.1481   1  23   0.0024   0.0024   0.0053   0.0009   0.0007  -0.0002  -0.01    3.8
2023/11/15 18:40:35.000   46.084751330  -79.346231585   225.2187   1  23   0.0024   0.0024   0.0053   0.0009   0.0008   0.0003  -0.01    3.8
2023/11/15 18:40:36.000   46.084749315  -79.346232433   225.3011   1  23   0.0024   0.0024   0.0053   0.0009   0.0009   0.0004  -0.01    3.7
2023/11/15 18:40:37.000   46.084748834  -79.346232343   225.2955   1  23   0.0024   0.0024   0.0053   0.0009   0.0009   0.0004  -0.01    3.7
2023/11/15 18:40:38.000   46.084747781  -79.346223989   225.2188   1  23   0.0024   0.0024   0.0053   0.0009   0.0009   0.0004  -0.01    3.7
2023/11/15 18:40:39.000   46.084745646  -79.346215629   225.2048   1  23   0.0024   0.0025   0.0054   0.0010   0.0003  -0.0007  -0.01    3.9
2023/11/15 18:40:40.000   46.084747236  -79.346215105   225.2416   1  23   0.0024   0.0024   0.0053   0.0009   0.0009   0.0004  -0.01    3.7
2023/11/15 18:40:41.000   46.084745078  -79.346212017   225.1708   1  23   0.0024   0.0024   0.0053   0.0009   0.0009   0.0004  -0.01    3.7
2023/11/15 18:40:42.000   46.084741279  -79.346206854   225.1321   1  23   0.0024   0.0024   0.0053   0.0009   0.0009   0.0005  -0.01    3.2
2023/11/15 18:40:43.000   46.084739765  -79.346206218   225.1234   1  23   0.0024   0.0024   0.0053   0.0009   0.0009   0.0005  -0.01    3.4
2023/11/15 18:40:44.000   46.084732196  -79.346202898   225.1307   1  23   0.0024   0.0024   0.0053   0.0009   0.0009   0.0005  -0.01    3.6
2023/11/15 18:40:45.000   46.084725868  -79.346198552   225.0579   1  23   0.0024   0.0024   0.0053   0.0009   0.0009   0.0005  -0.01    3.7
2023/11/15 18:40:46.000   46.084723216  -79.346197749   225.0999   1  23   0.0024   0.0024   0.0053   0.0009   0.0009   0.0005  -0.01    3.6
2023/11/15 18:40:47.000   46.084721520  -79.346190280   225.0858   1  23   0.0024   0.0024   0.0053   0.0009   0.0009   0.0005  -0.01    3.6
2023/11/15 18:40:48.000   46.084723361  -79.346180356   225.0874   1  23   0.0024   0.0025   0.0054   0.0010   0.0004  -0.0007  -0.01    3.7
2023/11/15 18:40:49.000   46.084724695  -79.346174497   225.1064   1  23   0.0024   0.0024   0.0053   0.0009   0.0009   0.0005  -0.01    3.6
2023/11/15 18:40:50.000   46.084725843  -79.346173134   225.1054   1  23   0.0024   0.0024   0.0053   0.0009   0.0009   0.0005  -0.01    3.6
2023/11/15 18:40:51.000   46.084731081  -79.346166453   225.0673   1  23   0.0024   0.0024   0.0053   0.0009   0.0009   0.0005  -0.01    3.6
2023/11/15 18:40:52.000   46.084734619  -79.346164106   225.1098   1  23   0.0024   0.0024   0.0053   0.0009   0.0009   0.0005  -0.01    3.6
2023/11/15 18:40:53.000   46.084735558  -79.346164819   225.1072   1  23   0.0024   0.0024   0.0053   0.0009   0.0009   0.0005  -0.01    3.6
2023/11/15 18:40:54.000   46.084742426  -79.346163432   225.1069   1  23   0.0024   0.0024   0.0053   0.0009   0.0009   0.0005  -0.01    3.6
2023/11/15 18:40:55.000   46.084746548  -79.346167174   225.0867   1  23   0.0024   0.0024   0.0053   0.0009   0.0009   0.0005  -0.01    3.6
2023/11/15 18:40:56.000   46.084747518  -79.346167536   225.0872   1  23   0.0024   0.0024   0.0053   0.0009   0.0009   0.0005  -0.01    3.6
2023/11/15 18:40:57.000   46.084753517  -79.346169440   225.1030   1  23   0.0024   0.0024   0.0053   0.0009   0.0009   0.0005  -0.01    3.6
2023/11/15 18:40:58.000   46.084756608  -79.346174760   225.1013   1  23   0.0024   0.0024   0.0053   0.0009   0.0009   0.0005  -0.01    3.6
2023/11/15 18:40:59.000   46.084757022  -79.346175171   225.0879   1  23   0.0024   0.0024   0.0053   0.0009   0.0009   0.0005  -0.01    3.6
2023/11/15 18:41:00.000   46.084757498  -79.346175481   225.0982   1  23   0.0024   0.0024   0.0053   0.0009   0.0009   0.0005  -0.01    3.6
2023/11/15 18:41:01.000   46.084762244  -79.346170497   225.1252   1  23   0.0024   0.0024   0.0054   0.0010   0.0004  -0.0008  -0.01    3.6
2023/11/15 18:41:02.000   46.084766633  -79.346171015   225.1387   1  23   0.0024   0.0024   0.0053   0.0009   0.0009   0.0005  -0.01    3.6
2023/11/15 18:41:03.000   46.084767991  -79.346172076   225.1290   1  23   0.0024   0.0024   0.0053   0.0009   0.0009   0.0005  -0.01    3.6
2023/11/15 18:41:04.000   46.084767645  -79.346172752   225.1374   1  23   0.0024   0.0024   0.0053   0.0009   0.0009   0.0005  -0.01    3.6
2023/11/15 18:41:05.000   46.084769789  -79.346177700   225.1011   1  23   0.0024   0.0024   0.0053   0.0009   0.0009   0.0005  -0.01    3.6
2023/11/15 18:41:06.000   46.084769375  -79.346180785   225.1021   1  23   0.0024   0.0024   0.0053   0.0009   0.0009   0.0005  -0.01    3.6
2023/11/15 18:41:07.000   46.084771218  -79.346182106   225.0968   1  23   0.0024   0.0024   0.0053   0.0009   0.0009   0.0005  -0.01    3.6
2023/11/15 18:41:08.000   46.084778479  -79.346182214   225.1086   1  23   0.0024   0.0024   0.0053   0.0009   0.0009   0.0005  -0.01    3.6
2023/11/15 18:41:09.000   46.084783096  -79.346184597   225.1246   1  23   0.0024   0.0024   0.0053   0.0009   0.0009   0.0005  -0.01    3.6
2023/11/15 18:41:10.000   46.084784283  -79.346184181   225.1269   1  23   0.0024   0.0024   0.0055   0.0010   0.0004  -0.0008  -0.01    3.6
2023/11/15 18:41:11.000   46.084787525  -79.346184783   225.0869   1  23   0.0024   0.0024   0.0055   0.0010   0.0004  -0.0008  -0.01    3.6
2023/11/15 18:41:12.000   46.084793745  -79.346184883   225.1078   1  23   0.0024   0.0024   0.0053   0.0009   0.0009   0.0005  -0.01    3.6
2023/11/15 18:41:13.000   46.084796296  -79.346185227   225.1407   1  23   0.0024   0.0024   0.0053   0.0009   0.0009   0.0005  -0.01    3.6
2023/11/15 18:41:14.000   46.084799567  -79.346185757   225.1111   1  23   0.0024   0.0024   0.0053   0.0009   0.0009   0.0005  -0.01    3.6
2023/11/15 18:41:15.000   46.084806038  -79.346185652   225.1266   1  23   0.0024   0.0024   0.0053   0.0009   0.0009   0.0005  -0.01    3.6
2023/11/15 18:41:16.000   46.084807526  -79.346185291   225.1350   1  23   0.0024   0.0024   0.0053   0.0009   0.0009   0.0005  -0.01    3.6
2023/11/15 18:41:17.000   46.084809733  -79.346181643   225.1009   1  23   0.0024   0.0024   0.0053   0.0009   0.0009   0.0005  -0.01    3.6
2023/11/15 18:41:18.000   46.084811810  -79.346170939   225.0289   1  23   0.0024   0.0025   0.0055   0.0008   0.0013  -0.0003  -0.01    3.9
2023/11/15 18:41:19.000   46.084813079  -79.346167609   225.0569   1  23   0.0024   0.0024   0.0053   0.0009   0.0009   0.0005  -0.01    3.6
2023/11/15 18:41:20.000   46.084813045  -79.346166495   225.0794   1  23   0.0024   0.0024   0.0053   0.0009   0.0009   0.0005  -0.01    3.6
2023/11/15 18:41:21.000   46.084811632  -79.346163217   225.0774   1  23   0.0024   0.0024   0.0053   0.0009   0.0009   0.0005  -0.01    3.6
2023/11/15 18:41:22.000   46.084806814  -79.346158488   225.0515   1  23   0.0024   0.0024   0.0053   0.0009   0.0009   0.0005  -0.01    3.6
2023/11/15 18:41:23.000   46.084804701  -79.346157597   225.0867   1  23   0.0024   0.0024   0.0053   0.0009   0.0009   0.0005  -0.01    3.6
2023/11/15 18:41:24.000   46.084804672  -79.346157157   225.0669   1  23   0.0024   0.0024   0.0053   0.0009   0.0009   0.0005  -0.01    3.6
2023/11/15 18:41:25.000   46.084799279  -79.346157195   225.0539   1  23   0.0024   0.0024   0.0053   0.0009   0.0009   0.0005  -0.01    3.6
2023/11/15 18:41:26.000   46.084792761  -79.346155100   225.0819   1  23   0.0024   0.0024   0.0053   0.0009   0.0009   0.0005  -0.01    3.6
2023/11/15 18:41:27.000   46.084791561  -79.346154904   225.0737   1  23   0.0024   0.0024   0.0053   0.0009   0.0009   0.0005  -0.01    3.6
2023/11/15 18:41:28.000   46.084786870  -79.346155896   225.0333   1  23   0.0024   0.0024   0.0053   0.0009   0.0009   0.0005  -0.01    3.6
2023/11/15 18:41:29.000   46.084781604  -79.346155664   225.0310   1  23   0.0024   0.0024   0.0053   0.0009   0.0009   0.0005  -0.01    3.6
2023/11/15 18:41:30.000   46.084780860  -79.346156575   225.0445   1  23   0.0024   0.0024   0.0053   0.0009   0.0009   0.0005  -0.01    3.6
2023/11/15 18:41:31.000   46.084777882  -79.346158073   225.0425   1  23   0.0024   0.0024   0.0053   0.0009   0.0009   0.0005  -0.01    3.6
2023/11/15 18:41:32.000   46.084773535  -79.346154427   225.0878   1  23   0.0024   0.0024   0.0053   0.0009   0.0009   0.0005  -0.01    3.5
2023/11/15 18:41:33.000   46.084772086  -79.346152335   225.0985   1  23   0.0024   0.0024   0.0053   0.0009   0.0009   0.0005  -0.01    3.5
2023/11/15 18:41:34.000   46.084772692  -79.346152062   225.0897   1  23   0.0024   0.0024   0.0053   0.0009   0.0009   0.0005  -0.01    3.5
2023/11/15 18:41:35.000   46.084769892  -79.346144914   225.0893   1  23   0.0024   0.0024   0.0053   0.0009   0.0009   0.0005  -0.01    3.5
2023/11/15 18:41:36.000   46.084771173  -79.346142302   225.1022   1  23   0.0024   0.0024   0.0053   0.0009   0.0009   0.0005  -0.01    3.5
2023/11/15 18:41:37.000   46.084770676  -79.346142492   225.0884   1  23   0.0024   0.0024   0.0053   0.0009   0.0009   0.0005  -0.01    3.5
2023/11/15 18:41:38.000   46.084770901  -79.346142063   225.0982   1  23   0.0024   0.0024   0.0053   0.0009   0.0009   0.0005  -0.01    3.5
2023/11/15 18:41:39.000   46.084769426  -79.346140576   225.0256   1  23   0.0024   0.0024   0.0053   0.0009   0.0009   0.0005  -0.01    3.5
2023/11/15 18:41:40.000   46.084766466  -79.346138494   225.0130   1  23   0.0024   0.0024   0.0053   0.0009   0.0009   0.0005  -0.01    3.5
2023/11/15 18:41:41.000   46.084763646  -79.346137802   225.0212   1  23   0.0024   0.0025   0.0055   0.0008   0.0013  -0.0003  -0.01    3.8
2023/11/15 18:41:42.000   46.084762084  -79.346134637   224.9772   1  23   0.0024   0.0024   0.0053   0.0009   0.0009   0.0005  -0.01    3.5
2023/11/15 18:41:43.000   46.084758533  -79.346127502   225.0186   1  23   0.0024   0.0024   0.0053   0.0009   0.0009   0.0005  -0.01    3.5
2023/11/15 18:41:44.000   46.084758308  -79.346126673   225.0135   1  23   0.0024   0.0024   0.0053   0.0009   0.0009   0.0005  -0.01    3.5
2023/11/15 18:41:45.000   46.084754382  -79.346129440   225.0178   1  23   0.0024   0.0024   0.0053   0.0009   0.0009   0.0005  -0.01    3.5
2023/11/15 18:41:46.000   46.084747342  -79.346130932   225.0284   1  23   0.0024   0.0024   0.0053   0.0009   0.0009   0.0005  -0.01    3.5
2023/11/15 18:41:47.000   46.084744657  -79.346132473   225.0363   1  23   0.0024   0.0024   0.0053   0.0009   0.0009   0.0005  -0.01    3.5
2023/11/15 18:41:48.000   46.084742604  -79.346133275   225.0151   1  23   0.0024   0.0024   0.0053   0.0009   0.0009   0.0005  -0.01    3.5
2023/11/15 18:41:49.000   46.084744432  -79.346132422   225.0328   1  23   0.0024   0.0025   0.0055   0.0008   0.0013  -0.0003  -0.01    3.8
2023/11/15 18:41:50.000   46.084744151  -79.346131886   225.0259   1  23   0.0024   0.0024   0.0053   0.0009   0.0009   0.0005  -0.01    3.5
2023/11/15 18:41:51.000   46.084740446  -79.346128318   224.9896   1  23   0.0024   0.0024   0.0053   0.0009   0.0009   0.0005  -0.01    3.5
2023/11/15 18:41:52.000   46.084735616  -79.346123180   225.0189   1  23   0.0024   0.0024   0.0053   0.0009   0.0009   0.0005  -0.01    3.5
2023/11/15 18:41:53.000   46.084735772  -79.346121721   225.0078   1  23   0.0024   0.0024   0.0053   0.0009   0.0009   0.0005  -0.01    3.5
2023/11/15 18:41:54.000   46.084736225  -79.346111764   224.9967   1  23   0.0024   0.0024   0.0055   0.0010   0.0004  -0.0008  -0.01    3.5
2023/11/15 18:41:55.000   46.084739270  -79.346101503   225.0771   1  23   0.0024   0.0024   0.0053   0.0009   0.0009   0.0005  -0.01    3.5
2023/11/15 18:41:56.000   46.084738977  -79.346094637   225.1026   1  23   0.0024   0.0024   0.0053   0.0009   0.0009   0.0005  -0.01    3.6
2023/11/15 18:41:57.000   46.084744917  -79.346091888   225.0919   1  23   0.0024   0.0024   0.0053   0.0009   0.0009   0.0005  -0.01    3.6
2023/11/15 18:41:58.000   46.084753441  -79.346088520   225.1414   1  23   0.0024   0.0024   0.0055   0.0010   0.0004  -0.0008  -0.01    3.6
2023/11/15 18:41:59.000   46.084756048  -79.346088686   225.1377   1  23   0.0024   0.0024   0.0055   0.0010   0.0004  -0.0008  -0.01    3.6
2023/11/15 18:42:00.000   46.084761949  -79.346089292   225.1099   1  23   0.0024   0.0024   0.0055   0.0010   0.0004  -0.0008  -0.01    3.6
2023/11/15 18:42:01.000   46.084769199  -79.346092849   225.1270   1  23   0.0024   0.0024   0.0055   0.0010   0.0004  -0.0008  -0.01    3.6
2023/11/15 18:42:02.000   46.084773122  -79.346093295   225.1470   1  23   0.0024   0.0024   0.0055   0.0010   0.0004  -0.0008  -0.01    3.6
2023/11/15 18:42:03.000   46.084775947  -79.346094342   225.1122   1  23   0.0024   0.0024   0.0055   0.0010   0.0004  -0.0008  -0.01    3.6
2023/11/15 18:42:04.000   46.084782933  -79.346095517   225.1739   1  23   0.0024   0.0024   0.0055   0.0010   0.0004  -0.0008  -0.01    3.6
2023/11/15 18:42:05.000   46.084785642  -79.346096496   225.2198   1  23   0.0024   0.0025   0.0057   0.0009   0.0010  -0.0010  -0.01    3.9
2023/11/15 18:42:06.000   46.084787322  -79.346098806   225.2091   1  23   0.0024   0.0025   0.0057   0.0009   0.0010  -0.0010  -0.01    3.9
2023/11/15 18:42:07.000   46.084789846  -79.346109181   225.2688   1  23   0.0024   0.0024   0.0053   0.0009   0.0009   0.0005  -0.01    3.6
2023/11/15 18:42:08.000   46.084789444  -79.346110999   225.3365   1  23   0.0024   0.0025   0.0055   0.0008   0.0013  -0.0003  -0.01    3.9
2023/11/15 18:42:09.000   46.084789383  -79.346112513   225.3323   1  23   0.0024   0.0024   0.0055   0.0010   0.0004  -0.0008  -0.01    3.6
2023/11/15 18:42:10.000   46.084795421  -79.346110450   225.2149   1  23   0.0024   0.0024   0.0055   0.0010   0.0004  -0.0008  -0.01    3.6
2023/11/15 18:42:11.000   46.084803225  -79.346107551   225.1912   1  23   0.0024   0.0024   0.0055   0.0010   0.0004  -0.0008  -0.01    3.6
2023/11/15 18:42:12.000   46.084804342  -79.346105399   225.2172   1  23   0.0024   0.0024   0.0053   0.0009   0.0009   0.0005  -0.01    3.6
2023/11/15 18:42:13.000   46.084803708  -79.346103753   225.2073   1  23   0.0024   0.0024   0.0053   0.0009   0.0009   0.0005  -0.01    3.6
2023/11/15 18:42:14.000   46.084811347  -79.346101919   225.2256   1  23   0.0024   0.0025   0.0057   0.0009   0.0010  -0.0010  -0.01    3.9
2023/11/15 18:42:15.000   46.084816118  -79.346101207   225.2558   1  23   0.0024   0.0025   0.0055   0.0010   0.0004  -0.0007  -0.01    3.7
2023/11/15 18:42:16.000   46.084818048  -79.346102872   225.2713   1  23   0.0024   0.0024   0.0053   0.0009   0.0009   0.0005  -0.01    3.6
2023/11/15 18:42:17.000   46.084824742  -79.346102259   225.2890   1  23   0.0024   0.0025   0.0055   0.0008   0.0013  -0.0003  -0.01    3.9
2023/11/15 18:42:18.000   46.084830052  -79.346103989   225.2944   1  23   0.0024   0.0025   0.0055   0.0008   0.0013  -0.0003  -0.01    3.9
2023/11/15 18:42:19.000   46.084830611  -79.346102306   225.2807   1  23   0.0024   0.0025   0.0055   0.0008   0.0013  -0.0003  -0.01    3.9
2023/11/15 18:42:20.000   46.084830961  -79.346092176   225.2556   1  23   0.0024   0.0025   0.0055   0.0008   0.0013  -0.0003  -0.01    3.9
2023/11/15 18:42:21.000   46.084832788  -79.346085988   225.2223   1  23   0.0024   0.0024   0.0053   0.0009   0.0009   0.0005  -0.01    3.6
2023/11/15 18:42:22.000   46.084833223  -79.346084118   225.2314   1  23   0.0024   0.0024   0.0053   0.0009   0.0009   0.0005  -0.01    3.6
2023/11/15 18:42:23.000   46.084835797  -79.346075256   225.2569   1  23   0.0024   0.0024   0.0053   0.0009   0.0009   0.0005  -0.01    3.6
2023/11/15 18:42:24.000   46.084841667  -79.346069423   225.2779   1  23   0.0024   0.0024   0.0053   0.0009   0.0009   0.0005  -0.01    3.6
2023/11/15 18:42:25.000   46.084842318  -79.346068511   225.2744   1  23   0.0024   0.0024   0.0053   0.0009   0.0009   0.0004  -0.01    3.6
2023/11/15 18:42:26.000   46.084839086  -79.346065696   225.2531   1  23   0.0024   0.0024   0.0053   0.0009   0.0009   0.0004  -0.01    3.6
2023/11/15 18:42:27.000   46.084831977  -79.346060895   225.2555   1  23   0.0024   0.0024   0.0053   0.0009   0.0009   0.0004  -0.01    3.6
2023/11/15 18:42:28.000   46.084831383  -79.346061598   225.2339   1  23   0.0024   0.0025   0.0055   0.0010   0.0003  -0.0008  -0.01    3.6
2023/11/15 18:42:29.000   46.084825698  -79.346066721   225.2365   1  23   0.0024   0.0024   0.0053   0.0009   0.0009   0.0004  -0.01    3.7
2023/11/15 18:42:30.000   46.084820922  -79.346068962   225.2222   1  23   0.0024   0.0025   0.0055   0.0010   0.0002  -0.0008  -0.01    3.7
2023/11/15 18:42:31.000   46.084819833  -79.346069302   225.2206   1  23   0.0024   0.0025   0.0055   0.0010   0.0002  -0.0008  -0.01    3.7
2023/11/15 18:42:32.000   46.084813272  -79.346071455   225.1990   1  23   0.0024   0.0024   0.0053   0.0009   0.0009   0.0003  -0.01    3.7
2023/11/15 18:42:33.000   46.084808744  -79.346067915   225.2305   1  23   0.0024   0.0024   0.0053   0.0009   0.0009   0.0003  -0.01    3.7
2023/11/15 18:42:34.000   46.084808379  -79.346067655   225.2175   1  23   0.0024   0.0024   0.0053   0.0009   0.0008   0.0003  -0.01    3.7
2023/11/15 18:42:35.000   46.084808122  -79.346065221   225.2211   1  23   0.0025   0.0025   0.0055   0.0011  -0.0003  -0.0009  -0.01    3.7
2023/11/15 18:42:36.000   46.084807938  -79.346067932   225.2370   1  23   0.0024   0.0024   0.0054   0.0009   0.0008  -0.0002  -0.01    3.7
2023/11/15 18:42:37.000   46.084806975  -79.346065480   225.2165   1  23   0.0025   0.0025   0.0056   0.0011  -0.0006  -0.0011  -0.01    3.7
2023/11/15 18:42:38.000   46.084803995  -79.346068345   225.3207   1  23   0.0024   0.0025   0.0055   0.0010   0.0002  -0.0008  -0.01    3.8
2023/11/15 18:42:39.000   46.084804003  -79.346067642   225.3097   1  23   0.0024   0.0025   0.0055   0.0010  -0.0002  -0.0008  -0.01    3.8
2023/11/15 18:42:40.000   46.084803401  -79.346067921   225.3319   1  23   0.0025   0.0025   0.0056   0.0011  -0.0005  -0.0010  -0.01    3.8
2023/11/15 18:42:41.000   46.084803673  -79.346068269   225.3312   1  23   0.0024   0.0025   0.0055   0.0010   0.0004  -0.0007  -0.01    3.8
2023/11/15 18:42:42.000   46.084803910  -79.346068076   225.3259   1  23   0.0024   0.0025   0.0055   0.0010   0.0004  -0.0007  -0.01    3.8
2023/11/15 18:42:43.000   46.084803819  -79.346067280   225.3235   1  23   0.0024   0.0025   0.0055   0.0010   0.0004  -0.0007  -0.01    3.8
2023/11/15 18:42:44.000   46.084804765  -79.346066921   225.2935   1  23   0.0024   0.0025   0.0055   0.0010   0.0004  -0.0007  -0.01    4.5
2023/11/15 18:42:45.000   46.084804966  -79.346068004   225.2857   1  23   0.0024   0.0024   0.0054   0.0009   0.0007  -0.0004  -0.01    4.5
2023/11/15 18:42:46.000   46.084804861  -79.346067858   225.2850   1  23   0.0024   0.0024   0.0054   0.0009   0.0008  -0.0002  -0.01    4.5
2023/11/15 18:42:47.000   46.084804795  -79.346067636   225.2858   1  23   0.0024   0.0025   0.0055   0.0010   0.0003  -0.0008  -0.01    4.5
2023/11/15 18:42:48.000   46.084804516  -79.346067311   225.2902   1  23   0.0024   0.0025   0.0055   0.0010   0.0003  -0.0007  -0.01    4.4
2023/11/15 18:42:49.000   46.084804491  -79.346066557   225.2878   1  23   0.0024   0.0025   0.0055   0.0010   0.0003  -0.0007  -0.01    4.4
2023/11/15 18:42:50.000   46.084804528  -79.346066470   225.2897   1  23   0.0024   0.0024   0.0053   0.0009   0.0009   0.0004  -0.01    3.1
2023/11/15 18:42:51.000   46.084804665  -79.346066680   225.2897   1  23   0.0024   0.0024   0.0053   0.0009   0.0009   0.0005  -0.01    3.5
2023/11/15 18:42:52.000   46.084804680  -79.346066680   225.2925   1  23   0.0024   0.0024   0.0053   0.0009   0.0009   0.0005  -0.01    3.8
2023/11/15 18:42:53.000   46.084804782  -79.346066858   225.2851   1  23   0.0024   0.0024   0.0053   0.0009   0.0009   0.0005  -0.01    4.1
2023/11/15 18:42:54.000   46.084804654  -79.346066793   225.2908   1  23   0.0024   0.0024   0.0053   0.0009   0.0009   0.0005  -0.01    4.3
2023/11/15 18:42:55.000   46.084804623  -79.346066469   225.2835   1  23   0.0024   0.0024   0.0053   0.0009   0.0009   0.0005  -0.01    4.3
