% program   : ES 1.7
% inp file  : F:\_GNSS Surveying\CryoSAR 2023-2024\2023-11-15\Emlid RS2 Rover\MagnaProbe_VegSurvey_ROVER_Files\ECCCreach3_raw_20231115180156_RINEX_3_03\ECCCreach3_raw_20231115180156.23O
% inp file  : F:\_GNSS Surveying\CryoSAR 2023-2024\2023-11-15\Emlid RS2 Basestation\ECCCreach1_raw_20231114233644_RINEX_3_03\ECCCreach1_raw_20231114233644.23P
% inp file  : F:\_GNSS Surveying\CryoSAR 2023-2024\2023-11-15\Emlid RS2 Basestation\ECCCreach1_raw_20231114233644_RINEX_3_03\ECCCreach1_raw_20231114233644.23O
% obs start : 2023/11/15 18:01:57.0 UTC (week2288 324135.0s)
% obs end   : 2023/11/15 18:19:13.0 UTC (week2288 325171.0s)
% ref pos   : 46.085005960 -79.346295870  225.3290
%
% (lat/lon/height=WGS84/ellipsoidal,Q=1:fix,2:float,3:sbas,4:dgps,5:single,6:ppp,ns=# of satellites)
%  UTC                   latitude(deg) longitude(deg)  height(m)   Q  ns   sdn(m)   sde(m)   sdu(m)  sdne(m)  sdeu(m)  sdun(m) age(s)  ratio
2023/11/15 18:01:57.000   46.089738676  -79.343418889   235.6617   1  24   0.0035   0.0031   0.0066   0.0009  -0.0004   0.0007  -0.01    3.9
2023/11/15 18:01:58.000   46.089738683  -79.343418936   235.6643   1  24   0.0035   0.0031   0.0066   0.0009  -0.0004   0.0007  -0.01    4.0
2023/11/15 18:01:59.000   46.089738684  -79.343418891   235.6644   1  24   0.0035   0.0031   0.0066   0.0009  -0.0004   0.0006  -0.01    4.0
2023/11/15 18:02:00.000   46.089738680  -79.343418959   235.6653   1  24   0.0035   0.0031   0.0066   0.0009  -0.0004   0.0006  -0.01    4.0
2023/11/15 18:02:01.000   46.089738640  -79.343418627   235.6737   1  24   0.0035   0.0031   0.0066   0.0010  -0.0005   0.0006  -0.01    4.0
2023/11/15 18:02:02.000   46.089738795  -79.343417310   235.6888   1  25   0.0035   0.0031   0.0066   0.0011   0.0003  -0.0005  -0.01    4.0
2023/11/15 18:02:03.000   46.089738943  -79.343416641   235.6818   1  25   0.0035   0.0031   0.0066   0.0011  -0.0003  -0.0007  -0.01    4.0
2023/11/15 18:02:04.000   46.089738677  -79.343419074   235.6668   1  24   0.0035   0.0031   0.0066   0.0010  -0.0005   0.0006  -0.01    4.0
2023/11/15 18:02:05.000   46.089738393  -79.343419976   235.6670   1  24   0.0036   0.0032   0.0067   0.0013  -0.0011  -0.0008  -0.01    4.7
2023/11/15 18:02:06.000   46.089738351  -79.343420153   235.6474   1  25   0.0036   0.0032   0.0067   0.0014  -0.0011  -0.0012  -0.01    4.6
2023/11/15 18:02:07.000   46.089737842  -79.343420373   235.6601   1  25   0.0035   0.0032   0.0065   0.0013  -0.0005  -0.0005  -0.01    4.5
2023/11/15 18:02:08.000   46.089737698  -79.343420642   235.6621   1  25   0.0035   0.0032   0.0065   0.0013  -0.0005  -0.0005  -0.01    4.3
2023/11/15 18:02:09.000   46.089737637  -79.343420800   235.6557   1  25   0.0035   0.0032   0.0066   0.0013  -0.0005  -0.0006  -0.01    4.5
2023/11/15 18:02:10.000   46.089738197  -79.343420398   235.6493   1  25   0.0037   0.0033   0.0067   0.0016  -0.0012  -0.0012  -0.01    4.5
2023/11/15 18:02:11.000   46.089737646  -79.343420791   235.6598   1  25   0.0036   0.0032   0.0066   0.0013  -0.0006  -0.0007  -0.01    4.5
2023/11/15 18:02:12.000   46.089737810  -79.343420902   235.6557   1  25   0.0036   0.0032   0.0066   0.0013  -0.0006  -0.0008  -0.01    4.5
2023/11/15 18:02:13.000   46.089737785  -79.343420934   235.6545   1  25   0.0036   0.0032   0.0066   0.0013  -0.0008  -0.0009  -0.01    3.5
2023/11/15 18:02:14.000   46.089737702  -79.343421102   235.6555   1  25   0.0036   0.0032   0.0067   0.0014  -0.0010  -0.0013  -0.01    4.5
2023/11/15 18:02:15.000   46.089736649  -79.343419722   235.7246   1  25   0.0035   0.0030   0.0065   0.0011   0.0010  -0.0007  -0.01    3.8
2023/11/15 18:02:16.000   46.089737022  -79.343419554   235.7250   1  25   0.0036   0.0031   0.0066   0.0014   0.0006  -0.0011  -0.01    4.4
2023/11/15 18:02:17.000   46.089737020  -79.343420204   235.7018   1  25   0.0036   0.0032   0.0067   0.0014  -0.0009  -0.0011  -0.01    4.4
2023/11/15 18:02:18.000   46.089737189  -79.343421053   235.6764   1  25   0.0036   0.0032   0.0067   0.0014  -0.0010  -0.0013  -0.01    4.4
2023/11/15 18:02:19.000   46.089737175  -79.343421063   235.6680   1  25   0.0036   0.0032   0.0066   0.0013  -0.0007  -0.0009  -0.01    4.3
2023/11/15 18:02:20.000   46.089736856  -79.343421088   235.6755   1  25   0.0036   0.0032   0.0067   0.0013  -0.0009  -0.0012  -0.01    4.3
2023/11/15 18:02:21.000   46.089736201  -79.343418109   235.7019   1  25   0.0035   0.0030   0.0066   0.0012   0.0009  -0.0011  -0.01    3.5
2023/11/15 18:02:22.000   46.089735208  -79.343409234   235.6215   1  25   0.0036   0.0031   0.0066   0.0013   0.0005  -0.0012  -0.01    3.6
2023/11/15 18:02:23.000   46.089733342  -79.343395225   235.5766   1  25   0.0034   0.0030   0.0064   0.0010   0.0012  -0.0000  -0.01    5.1
2023/11/15 18:02:24.000   46.089729880  -79.343378187   235.4831   1  25   0.0035   0.0031   0.0065   0.0008   0.0010   0.0005  -0.01    5.1
2023/11/15 18:02:25.000   46.089725799  -79.343359951   235.5179   1  25   0.0035   0.0030   0.0065   0.0008   0.0014  -0.0007  -0.01    5.1
2023/11/15 18:02:26.000   46.089723849  -79.343342084   235.3829   1  24   0.0035   0.0031   0.0073   0.0005   0.0020  -0.0011  -0.01    5.0
2023/11/15 18:02:27.000   46.089722169  -79.343323586   235.4579   1  25   0.0035   0.0031   0.0066   0.0005   0.0017  -0.0011  -0.01    5.0
2023/11/15 18:02:28.000   46.089718690  -79.343307316   235.3539   1  25   0.0035   0.0030   0.0065   0.0008   0.0014  -0.0007  -0.01    4.9
2023/11/15 18:02:29.000   46.089714655  -79.343290250   235.3925   1  25   0.0035   0.0030   0.0064   0.0009   0.0013  -0.0004  -0.01    4.7
2023/11/15 18:02:30.000   46.089713608  -79.343272832   235.2498   1  25   0.0035   0.0030   0.0065   0.0008   0.0014  -0.0007  -0.01    4.7
2023/11/15 18:02:31.000   46.089712750  -79.343255825   235.2593   1  25   0.0034   0.0030   0.0064   0.0009   0.0008   0.0008  -0.01    5.6
2023/11/15 18:02:32.000   46.089711337  -79.343238626   235.1642   1  25   0.0034   0.0030   0.0064   0.0011   0.0011   0.0005  -0.01    5.6
2023/11/15 18:02:33.000   46.089708984  -79.343221651   235.1101   1  25   0.0034   0.0030   0.0064   0.0011   0.0012   0.0005  -0.01    5.6
2023/11/15 18:02:33.999   46.089707370  -79.343203267   235.0960   1  25   0.0034   0.0030   0.0064   0.0011   0.0012   0.0005  -0.01    5.6
2023/11/15 18:02:35.000   46.089707191  -79.343185329   234.9841   1  25   0.0034   0.0030   0.0064   0.0011   0.0012   0.0005  -0.01    5.7
2023/11/15 18:02:36.000   46.089706929  -79.343167483   235.0215   1  25   0.0034   0.0030   0.0064   0.0009   0.0008   0.0008  -0.01    5.6
2023/11/15 18:02:37.000   46.089704428  -79.343153789   234.9381   1  25   0.0034   0.0030   0.0064   0.0011   0.0012   0.0005  -0.01    5.6
2023/11/15 18:02:38.000   46.089700153  -79.343146558   234.9993   1  25   0.0034   0.0030   0.0064   0.0011   0.0012   0.0005  -0.01    5.6
2023/11/15 18:02:39.000   46.089700383  -79.343145502   235.0061   1  25   0.0034   0.0030   0.0064   0.0011   0.0012   0.0005  -0.01    5.6
2023/11/15 18:02:40.000   46.089700389  -79.343144973   235.0065   1  25   0.0034   0.0030   0.0064   0.0011   0.0012   0.0005  -0.01    5.6
2023/11/15 18:02:41.000   46.089700554  -79.343144960   235.0135   1  25   0.0034   0.0030   0.0064   0.0011   0.0012   0.0005  -0.01    5.6
2023/11/15 18:02:42.000   46.089700381  -79.343145503   234.9990   1  25   0.0034   0.0030   0.0064   0.0011   0.0012   0.0005  -0.01    5.6
2023/11/15 18:02:43.000   46.089700358  -79.343145376   235.0030   1  25   0.0034   0.0030   0.0064   0.0011   0.0012   0.0005  -0.01    5.6
2023/11/15 18:02:44.000   46.089700195  -79.343145473   235.0064   1  25   0.0034   0.0030   0.0064   0.0011   0.0012   0.0005  -0.01    5.6
2023/11/15 18:02:45.000   46.089700039  -79.343145046   235.0092   1  25   0.0034   0.0030   0.0064   0.0011   0.0012   0.0005  -0.01    5.6
2023/11/15 18:02:46.000   46.089700710  -79.343144597   235.0272   1  25   0.0034   0.0030   0.0064   0.0011   0.0012   0.0005  -0.01    5.6
2023/11/15 18:02:47.000   46.089700545  -79.343144279   235.0310   1  25   0.0034   0.0030   0.0064   0.0011   0.0012   0.0005  -0.01    5.6
2023/11/15 18:02:48.000   46.089700544  -79.343144744   235.0266   1  25   0.0034   0.0030   0.0064   0.0011   0.0012   0.0005  -0.01    5.6
2023/11/15 18:02:49.000   46.089700520  -79.343144884   235.0269   1  25   0.0034   0.0030   0.0064   0.0011   0.0012   0.0005  -0.01    5.5
2023/11/15 18:02:50.000   46.089700433  -79.343144554   235.0348   1  25   0.0034   0.0030   0.0064   0.0011   0.0012   0.0005  -0.01    5.5
2023/11/15 18:02:51.000   46.089700389  -79.343144510   235.0307   1  25   0.0034   0.0030   0.0064   0.0011   0.0012   0.0005  -0.01    5.5
2023/11/15 18:02:52.000   46.089700367  -79.343144637   235.0209   1  25   0.0034   0.0030   0.0064   0.0011   0.0012   0.0005  -0.01    5.5
2023/11/15 18:02:53.000   46.089700324  -79.343145058   235.0237   1  25   0.0034   0.0030   0.0064   0.0011   0.0012   0.0005  -0.01    5.5
2023/11/15 18:02:54.000   46.089700088  -79.343145085   235.0258   1  25   0.0034   0.0030   0.0064   0.0011   0.0012   0.0005  -0.01    5.4
2023/11/15 18:02:55.000   46.089699998  -79.343145009   235.0245   1  25   0.0034   0.0030   0.0064   0.0011   0.0012   0.0005  -0.01    5.4
2023/11/15 18:02:56.000   46.089700273  -79.343145263   235.0104   1  25   0.0034   0.0030   0.0064   0.0011   0.0012   0.0005  -0.01    5.4
2023/11/15 18:02:57.000   46.089700275  -79.343144945   235.0139   1  25   0.0034   0.0030   0.0064   0.0011   0.0012   0.0005  -0.01    5.4
2023/11/15 18:02:58.000   46.089700315  -79.343144340   235.0172   1  25   0.0034   0.0030   0.0064   0.0011   0.0012   0.0005  -0.01    5.4
2023/11/15 18:02:59.000   46.089700552  -79.343145193   235.0152   1  25   0.0034   0.0030   0.0064   0.0011   0.0012   0.0005  -0.01    5.4
2023/11/15 18:03:00.000   46.089700335  -79.343145299   235.0149   1  25   0.0034   0.0030   0.0064   0.0011   0.0012   0.0005  -0.01    5.4
2023/11/15 18:03:01.000   46.089699805  -79.343140776   234.9639   1  25   0.0025   0.0022   0.0046   0.0006   0.0011  -0.0005  -0.01    3.4
2023/11/15 18:03:02.000   46.089698191  -79.343127807   234.9573   1  25   0.0024   0.0021   0.0045   0.0007   0.0008   0.0004  -0.01    3.1
2023/11/15 18:03:03.000   46.089696423  -79.343114118   234.9318   1  25   0.0024   0.0021   0.0045   0.0007   0.0008   0.0004  -0.01    3.1
2023/11/15 18:03:04.000   46.089693987  -79.343099333   234.8800   1  25   0.0024   0.0021   0.0045   0.0007   0.0008   0.0004  -0.01    3.2
2023/11/15 18:03:05.000   46.089691086  -79.343083965   234.8508   1  25   0.0024   0.0021   0.0045   0.0007   0.0008   0.0004  -0.01    3.2
2023/11/15 18:03:06.000   46.089688911  -79.343068033   234.7724   1  25   0.0024   0.0021   0.0046   0.0007   0.0006   0.0005  -0.01    3.2
2023/11/15 18:03:07.000   46.089685944  -79.343051720   234.6938   1  25   0.0024   0.0021   0.0046   0.0007   0.0006   0.0005  -0.01    3.2
2023/11/15 18:03:08.000   46.089681945  -79.343035882   234.6715   1  25   0.0024   0.0021   0.0046   0.0007   0.0006   0.0005  -0.01    3.3
2023/11/15 18:03:09.000   46.089677533  -79.343019407   234.5870   1  25   0.0024   0.0021   0.0045   0.0007   0.0008   0.0003  -0.01    3.3
2023/11/15 18:03:10.000   46.089673345  -79.343003221   234.5454   1  24   0.0024   0.0021   0.0046   0.0007   0.0006   0.0005  -0.01    3.3
2023/11/15 18:03:11.000   46.089668922  -79.342988860   234.3743   1  25   0.0024   0.0021   0.0045   0.0007   0.0008   0.0003  -0.01    3.3
2023/11/15 18:03:12.000   46.089662155  -79.342976455   234.3330   1  24   0.0024   0.0022   0.0046   0.0006   0.0000   0.0007  -0.01    3.4
2023/11/15 18:03:13.000   46.089654173  -79.342966333   234.1897   1  25   0.0024   0.0021   0.0046   0.0007   0.0006   0.0005  -0.01    3.4
2023/11/15 18:03:14.000   46.089646462  -79.342955868   234.2155   1  25   0.0024   0.0021   0.0046   0.0007   0.0006   0.0005  -0.01    3.4
2023/11/15 18:03:15.000   46.089643202  -79.342950811   234.1894   1  25   0.0024   0.0021   0.0045   0.0007   0.0008   0.0003  -0.01    3.4
2023/11/15 18:03:16.000   46.089642354  -79.342951148   234.1812   1  25   0.0024   0.0021   0.0045   0.0007   0.0008   0.0003  -0.01    3.4
2023/11/15 18:03:17.000   46.089642844  -79.342951468   234.1760   1  25   0.0024   0.0021   0.0045   0.0007   0.0008   0.0003  -0.01    3.4
2023/11/15 18:03:18.000   46.089643267  -79.342950783   234.1731   1  25   0.0024   0.0021   0.0045   0.0007   0.0008   0.0003  -0.01    3.4
2023/11/15 18:03:19.000   46.089643265  -79.342950987   234.1737   1  25   0.0024   0.0021   0.0045   0.0007   0.0008   0.0003  -0.01    3.4
2023/11/15 18:03:20.000   46.089643550  -79.342952047   234.1500   1  25   0.0024   0.0021   0.0046   0.0007   0.0006   0.0005  -0.01    3.4
2023/11/15 18:03:21.000   46.089643089  -79.342951057   234.1890   1  25   0.0024   0.0021   0.0046   0.0007   0.0006   0.0005  -0.01    3.4
2023/11/15 18:03:22.000   46.089642041  -79.342949951   234.1871   1  25   0.0024   0.0021   0.0045   0.0007   0.0008   0.0003  -0.01    3.4
2023/11/15 18:03:23.000   46.089638354  -79.342940252   234.0610   1  25   0.0024   0.0021   0.0045   0.0008   0.0008   0.0003  -0.01    3.4
2023/11/15 18:03:24.000   46.089633281  -79.342931723   233.9455   1  25   0.0024   0.0021   0.0045   0.0008   0.0008   0.0003  -0.01    3.5
2023/11/15 18:03:25.000   46.089630288  -79.342928772   234.0004   1  25   0.0024   0.0021   0.0045   0.0007   0.0008   0.0004  -0.01    3.5
2023/11/15 18:03:26.000   46.089627361  -79.342923046   233.9352   1  25   0.0024   0.0022   0.0046   0.0007   0.0006   0.0005  -0.01    3.6
2023/11/15 18:03:27.000   46.089623349  -79.342916522   233.8935   1  25   0.0024   0.0022   0.0046   0.0007   0.0006   0.0005  -0.01    3.6
2023/11/15 18:03:28.000   46.089623801  -79.342914636   233.8816   1  25   0.0024   0.0022   0.0046   0.0007   0.0006   0.0005  -0.01    3.6
2023/11/15 18:03:29.000   46.089619334  -79.342911817   233.8714   1  24   0.0024   0.0021   0.0046   0.0007   0.0007   0.0006  -0.01    3.6
2023/11/15 18:03:30.000   46.089616856  -79.342907761   233.8188   1  23   0.0026   0.0022   0.0048   0.0006  -0.0002   0.0014  -0.01    4.1
2023/11/15 18:03:31.000   46.089616548  -79.342908936   233.6952   1  23   0.0025   0.0022   0.0047   0.0005  -0.0004   0.0009  -0.01    3.8
2023/11/15 18:03:32.000   46.089616928  -79.342908379   233.5221   1  23   0.0025   0.0022   0.0047   0.0005  -0.0004   0.0009  -0.01    3.8
2023/11/15 18:03:33.000   46.089615714  -79.342905338   233.8127   1  23   0.0026   0.0022   0.0048   0.0006  -0.0002   0.0014  -0.01    4.2
2023/11/15 18:03:34.000   46.089615088  -79.342900993   233.8568   1  25   0.0024   0.0021   0.0045   0.0007   0.0008   0.0004  -0.01    3.8
2023/11/15 18:03:35.000   46.089614095  -79.342901218   233.8374   1  25   0.0024   0.0021   0.0045   0.0007   0.0008   0.0004  -0.01    3.8
2023/11/15 18:03:36.000   46.089613835  -79.342901403   233.8355   1  25   0.0024   0.0021   0.0045   0.0007   0.0008   0.0004  -0.01    3.8
2023/11/15 18:03:37.000   46.089613728  -79.342901353   233.8369   1  25   0.0024   0.0021   0.0045   0.0007   0.0008   0.0004  -0.01    3.8
2023/11/15 18:03:38.000   46.089613577  -79.342903438   233.8511   1  25   0.0024   0.0021   0.0045   0.0007   0.0007   0.0004  -0.01    3.8
2023/11/15 18:03:39.000   46.089613338  -79.342903505   233.8439   1  25   0.0024   0.0022   0.0046   0.0007   0.0006   0.0005  -0.01    3.8
2023/11/15 18:03:40.000   46.089613015  -79.342905318   233.8151   1  25   0.0024   0.0022   0.0046   0.0007   0.0006   0.0005  -0.01    3.8
2023/11/15 18:03:41.000   46.089613401  -79.342903739   233.8294   1  25   0.0024   0.0022   0.0046   0.0007   0.0006   0.0005  -0.01    3.8
2023/11/15 18:03:42.000   46.089615162  -79.342905489   233.7152   1  24   0.0024   0.0022   0.0046   0.0006   0.0002   0.0007  -0.01    4.0
2023/11/15 18:03:43.000   46.089615155  -79.342906175   233.6740   1  24   0.0024   0.0022   0.0046   0.0006   0.0002   0.0007  -0.01    4.0
2023/11/15 18:03:44.000   46.089613894  -79.342904060   233.7764   1  24   0.0024   0.0022   0.0046   0.0006   0.0002   0.0007  -0.01    4.0
2023/11/15 18:03:45.000   46.089613327  -79.342903129   233.7750   1  25   0.0024   0.0022   0.0046   0.0007   0.0006   0.0005  -0.01    4.0
2023/11/15 18:03:46.000   46.089614292  -79.342905528   233.7378   1  24   0.0024   0.0022   0.0046   0.0006   0.0002   0.0007  -0.01    4.1
2023/11/15 18:03:47.000   46.089616523  -79.342907360   233.5102   1  23   0.0025   0.0022   0.0047   0.0005  -0.0004   0.0008  -0.01    4.1
2023/11/15 18:03:48.000   46.089614248  -79.342904246   233.7715   1  23   0.0025   0.0022   0.0047   0.0005  -0.0004   0.0008  -0.01    4.2
2023/11/15 18:03:49.000   46.089615046  -79.342905920   233.7219   1  24   0.0024   0.0022   0.0046   0.0006   0.0002   0.0007  -0.01    4.2
2023/11/15 18:03:50.000   46.089616527  -79.342907634   233.4659   1  23   0.0025   0.0022   0.0047   0.0005  -0.0004   0.0008  -0.01    4.2
2023/11/15 18:03:51.000   46.089614078  -79.342904059   233.7459   1  24   0.0024   0.0022   0.0046   0.0006   0.0005   0.0007  -0.01    4.1
2023/11/15 18:03:52.000   46.089614948  -79.342902253   233.8443   1  25   0.0024   0.0022   0.0046   0.0006   0.0005   0.0006  -0.01    4.3
2023/11/15 18:03:53.000   46.089614737  -79.342902439   233.8364   1  25   0.0024   0.0022   0.0046   0.0007   0.0006   0.0006  -0.01    4.3
2023/11/15 18:03:54.000   46.089614983  -79.342903296   233.8547   1  25   0.0024   0.0021   0.0045   0.0007   0.0007   0.0005  -0.01    4.3
2023/11/15 18:03:55.000   46.089616022  -79.342901088   233.7815   1  25   0.0024   0.0022   0.0046   0.0007   0.0006   0.0005  -0.01    4.3
2023/11/15 18:03:56.000   46.089615271  -79.342891689   233.7406   1  25   0.0024   0.0022   0.0046   0.0007   0.0006   0.0005  -0.01    4.4
2023/11/15 18:03:57.000   46.089612183  -79.342883728   233.7376   1  25   0.0024   0.0022   0.0046   0.0007   0.0006   0.0005  -0.01    4.3
2023/11/15 18:03:58.000   46.089613855  -79.342874078   233.6169   1  25   0.0024   0.0022   0.0046   0.0007   0.0006   0.0005  -0.01    3.3
2023/11/15 18:03:59.000   46.089614388  -79.342868256   233.6606   1  25   0.0024   0.0022   0.0046   0.0007   0.0006   0.0005  -0.01    3.6
2023/11/15 18:04:00.000   46.089613420  -79.342867039   233.6366   1  25   0.0024   0.0022   0.0046   0.0007   0.0006   0.0005  -0.01    3.9
2023/11/15 18:04:01.000   46.089606567  -79.342861672   233.5888   1  25   0.0024   0.0021   0.0045   0.0007   0.0008   0.0004  -0.01    4.2
2023/11/15 18:04:02.000   46.089603969  -79.342856778   233.5323   1  24   0.0024   0.0022   0.0046   0.0006   0.0005   0.0007  -0.01    4.4
2023/11/15 18:04:03.000   46.089606420  -79.342854360   233.4781   1  23   0.0025   0.0022   0.0047   0.0005  -0.0004   0.0009  -0.01    4.4
2023/11/15 18:04:04.000   46.089608055  -79.342855318   233.3804   1  23   0.0025   0.0022   0.0046   0.0006   0.0005   0.0008  -0.01    4.4
2023/11/15 18:04:05.000   46.089608340  -79.342854723   233.4224   1  23   0.0025   0.0022   0.0047   0.0005  -0.0003   0.0011  -0.01    4.5
2023/11/15 18:04:06.000   46.089607791  -79.342855167   233.4244   1  24   0.0025   0.0022   0.0046   0.0007   0.0007   0.0008  -0.01    4.5
2023/11/15 18:04:07.000   46.089607614  -79.342856092   233.4114   1  24   0.0025   0.0022   0.0047   0.0006   0.0003   0.0009  -0.01    4.5
2023/11/15 18:04:08.000   46.089606907  -79.342855506   233.4663   1  23   0.0025   0.0022   0.0047   0.0007   0.0006   0.0010  -0.01    3.5
2023/11/15 18:04:09.000   46.089606602  -79.342853700   233.5212   1  24   0.0025   0.0022   0.0047   0.0006   0.0003   0.0010  -0.01    4.5
2023/11/15 18:04:10.000   46.089606495  -79.342853671   233.5162   1  24   0.0025   0.0022   0.0047   0.0006   0.0003   0.0010  -0.01    4.5
2023/11/15 18:04:11.000   46.089606489  -79.342853830   233.5085   1  24   0.0026   0.0022   0.0047   0.0006   0.0004   0.0011  -0.01    4.4
2023/11/15 18:04:12.000   46.089606433  -79.342852882   233.5251   1  24   0.0026   0.0022   0.0047   0.0006   0.0004   0.0011  -0.01    4.4
2023/11/15 18:04:13.000   46.089607741  -79.342847043   233.4659   1  25   0.0026   0.0021   0.0046   0.0009   0.0010   0.0010  -0.01    4.0
2023/11/15 18:04:14.000   46.089605325  -79.342841492   233.3842   1  23   0.0027   0.0022   0.0048   0.0007   0.0007   0.0014  -0.01    4.4
2023/11/15 18:04:15.000   46.089606429  -79.342838894   233.1926   1  23   0.0028   0.0022   0.0049   0.0006  -0.0001   0.0017  -0.01    4.8
2023/11/15 18:04:16.000   46.089606586  -79.342838502   233.2025   1  23   0.0029   0.0022   0.0050   0.0006   0.0003   0.0019  -0.01    4.9
2023/11/15 18:04:17.000   46.089602895  -79.342837311   233.4678   1  25   0.0030   0.0022   0.0049   0.0010   0.0010   0.0018  -0.01    5.0
2023/11/15 18:04:18.000   46.089602802  -79.342836671   233.4591   1  25   0.0028   0.0022   0.0048   0.0009   0.0009   0.0016  -0.01    5.0
2023/11/15 18:04:19.000   46.089602869  -79.342836885   233.4546   1  25   0.0028   0.0022   0.0048   0.0009   0.0009   0.0015  -0.01    5.0
2023/11/15 18:04:20.000   46.089603433  -79.342835117   233.4454   1  25   0.0028   0.0022   0.0048   0.0009   0.0009   0.0016  -0.01    4.9
2023/11/15 18:04:21.000   46.089600881  -79.342825930   233.3194   1  25   0.0027   0.0022   0.0047   0.0008   0.0008   0.0013  -0.01    4.9
2023/11/15 18:04:22.000   46.089597843  -79.342816199   233.1737   1  24   0.0028   0.0021   0.0048   0.0009   0.0010   0.0015  -0.01    4.9
2023/11/15 18:04:23.000   46.089597455  -79.342813543   233.0939   1  23   0.0028   0.0022   0.0049   0.0006  -0.0001   0.0017  -0.01    4.9
2023/11/15 18:04:24.000   46.089596090  -79.342812483   233.3010   1  23   0.0028   0.0022   0.0049   0.0006   0.0003   0.0017  -0.01    4.9
2023/11/15 18:04:25.000   46.089593177  -79.342811549   233.3217   1  24   0.0026   0.0022   0.0047   0.0007   0.0004   0.0011  -0.01    4.9
2023/11/15 18:04:26.000   46.089594071  -79.342811697   233.3246   1  25   0.0025   0.0022   0.0046   0.0007   0.0007   0.0009  -0.01    4.8
2023/11/15 18:04:27.000   46.089594176  -79.342811931   233.3182   1  25   0.0025   0.0022   0.0047   0.0007   0.0009   0.0007  -0.01    4.1
2023/11/15 18:04:28.000   46.089592736  -79.342809892   233.2661   1  25   0.0025   0.0022   0.0046   0.0007   0.0007   0.0007  -0.01    4.3
2023/11/15 18:04:29.000   46.089588257  -79.342800409   233.1940   1  25   0.0025   0.0021   0.0045   0.0008   0.0009   0.0007  -0.01    4.7
2023/11/15 18:04:30.000   46.089582751  -79.342792062   233.1623   1  25   0.0026   0.0021   0.0046   0.0009   0.0009   0.0009  -0.01    4.7
2023/11/15 18:04:31.000   46.089581842  -79.342786228   232.9834   1  23   0.0033   0.0022   0.0053   0.0007   0.0005   0.0025  -0.01    4.8
2023/11/15 18:04:32.000   46.089582202  -79.342785351   232.9831   1  23   0.0030   0.0022   0.0051   0.0007   0.0004   0.0020  -0.01    4.8
2023/11/15 18:04:33.000   46.089579183  -79.342783681   233.1713   1  23   0.0026   0.0022   0.0047   0.0007   0.0006   0.0012  -0.01    4.7
2023/11/15 18:04:34.000   46.089579242  -79.342782438   233.2051   1  24   0.0025   0.0022   0.0046   0.0007   0.0007   0.0009  -0.01    4.7
2023/11/15 18:04:35.000   46.089579592  -79.342782525   233.1992   1  25   0.0025   0.0022   0.0046   0.0007   0.0007   0.0008  -0.01    4.7
2023/11/15 18:04:36.000   46.089580362  -79.342780899   233.1953   1  25   0.0025   0.0022   0.0046   0.0007   0.0007   0.0008  -0.01    4.7
2023/11/15 18:04:37.000   46.089578736  -79.342774017   233.1412   1  25   0.0025   0.0022   0.0046   0.0008   0.0011   0.0006  -0.01    4.8
2023/11/15 18:04:38.000   46.089582905  -79.342776170   233.0873   1  24   0.0025   0.0022   0.0046   0.0006   0.0006   0.0009  -0.01    4.7
2023/11/15 18:04:39.000   46.089583184  -79.342776552   232.9573   1  23   0.0025   0.0022   0.0047   0.0005  -0.0003   0.0010  -0.01    3.2
2023/11/15 18:04:40.000   46.089583857  -79.342777122   233.0462   1  23   0.0025   0.0022   0.0047   0.0005  -0.0003   0.0010  -0.01    3.6
2023/11/15 18:04:41.000   46.089583412  -79.342771614   233.1102   1  25   0.0024   0.0021   0.0045   0.0008   0.0009   0.0005  -0.01    4.0
2023/11/15 18:04:42.000   46.089583969  -79.342772449   233.1222   1  25   0.0025   0.0021   0.0045   0.0008   0.0009   0.0006  -0.01    4.3
2023/11/15 18:04:43.000   46.089585228  -79.342771251   233.1452   1  25   0.0025   0.0021   0.0046   0.0008   0.0009   0.0007  -0.01    4.4
2023/11/15 18:04:44.000   46.089590931  -79.342774426   233.1126   1  25   0.0026   0.0021   0.0046   0.0009   0.0010   0.0009  -0.01    4.4
2023/11/15 18:04:45.000   46.089599013  -79.342771433   233.1521   1  25   0.0026   0.0021   0.0046   0.0009   0.0010   0.0009  -0.01    4.4
2023/11/15 18:04:46.000   46.089601802  -79.342772213   233.1373   1  25   0.0025   0.0021   0.0046   0.0008   0.0009   0.0007  -0.01    4.4
2023/11/15 18:04:47.000   46.089606363  -79.342773786   233.1214   1  25   0.0025   0.0021   0.0045   0.0008   0.0009   0.0006  -0.01    4.4
2023/11/15 18:04:48.000   46.089613367  -79.342772711   233.1365   1  25   0.0025   0.0022   0.0046   0.0007   0.0007   0.0007  -0.01    4.5
2023/11/15 18:04:49.000   46.089619040  -79.342765884   233.1264   1  25   0.0024   0.0022   0.0046   0.0008   0.0011   0.0005  -0.01    4.5
2023/11/15 18:04:50.000   46.089619738  -79.342765987   233.1040   1  25   0.0024   0.0022   0.0047   0.0007   0.0009   0.0006  -0.01    4.7
2023/11/15 18:04:51.000   46.089620766  -79.342767491   233.1132   1  25   0.0024   0.0022   0.0047   0.0007   0.0009   0.0006  -0.01    3.4
2023/11/15 18:04:52.000   46.089626357  -79.342767537   233.0469   1  25   0.0024   0.0022   0.0046   0.0007   0.0007   0.0006  -0.01    3.5
2023/11/15 18:04:53.000   46.089630260  -79.342767172   232.9763   1  25   0.0024   0.0022   0.0046   0.0007   0.0007   0.0005  -0.01    4.0
2023/11/15 18:04:54.000   46.089630677  -79.342768328   232.8991   1  25   0.0024   0.0022   0.0046   0.0007   0.0008   0.0005  -0.01    4.3
2023/11/15 18:04:55.000   46.089631021  -79.342767875   232.9393   1  25   0.0024   0.0022   0.0046   0.0007   0.0008   0.0005  -0.01    4.5
2023/11/15 18:04:56.000   46.089633086  -79.342767087   233.0943   1  25   0.0024   0.0021   0.0046   0.0008   0.0010   0.0003  -0.01    4.3
2023/11/15 18:04:57.000   46.089633065  -79.342768247   233.1429   1  25   0.0024   0.0022   0.0047   0.0007   0.0010   0.0005  -0.01    4.7
2023/11/15 18:04:58.000   46.089633599  -79.342768698   233.1299   1  24   0.0024   0.0022   0.0047   0.0007   0.0012   0.0002  -0.01    4.5
2023/11/15 18:04:59.000   46.089633998  -79.342770235   233.1402   1  24   0.0024   0.0022   0.0047   0.0007   0.0012   0.0002  -0.01    4.5
2023/11/15 18:05:00.000   46.089632221  -79.342778916   233.1785   1  24   0.0024   0.0022   0.0047   0.0007   0.0011   0.0004  -0.01    4.7
2023/11/15 18:05:01.000   46.089631087  -79.342787699   233.1919   1  24   0.0024   0.0022   0.0047   0.0007   0.0012   0.0002  -0.01    4.5
2023/11/15 18:05:02.000   46.089625373  -79.342791206   233.0874   1  24   0.0024   0.0022   0.0047   0.0007   0.0012   0.0002  -0.01    4.5
2023/11/15 18:05:03.000   46.089629263  -79.342795019   233.2759   1  24   0.0024   0.0022   0.0047   0.0007   0.0012   0.0002  -0.01    4.5
2023/11/15 18:05:04.000   46.089628858  -79.342794661   233.2746   1  24   0.0024   0.0022   0.0047   0.0007   0.0011   0.0004  -0.01    4.7
2023/11/15 18:05:05.000   46.089627165  -79.342795840   233.2567   1  24   0.0024   0.0022   0.0047   0.0007   0.0011   0.0005  -0.01    4.7
2023/11/15 18:05:06.000   46.089624865  -79.342798660   233.1489   1  24   0.0024   0.0023   0.0048   0.0005   0.0015  -0.0006  -0.01    4.5
2023/11/15 18:05:07.000   46.089624178  -79.342800652   233.2752   1  24   0.0024   0.0022   0.0047   0.0007   0.0012   0.0002  -0.01    4.4
2023/11/15 18:05:08.000   46.089625122  -79.342803351   233.3028   1  24   0.0024   0.0022   0.0047   0.0007   0.0012   0.0002  -0.01    4.4
2023/11/15 18:05:09.000   46.089624841  -79.342802348   233.2887   1  24   0.0024   0.0022   0.0047   0.0007   0.0012   0.0002  -0.01    4.4
2023/11/15 18:05:10.000   46.089624964  -79.342802363   233.2922   1  24   0.0024   0.0022   0.0047   0.0007   0.0012   0.0002  -0.01    4.4
2023/11/15 18:05:11.000   46.089623501  -79.342800823   233.2866   1  24   0.0024   0.0022   0.0047   0.0007   0.0012   0.0003  -0.01    4.4
2023/11/15 18:05:12.000   46.089623636  -79.342803610   233.2799   1  24   0.0024   0.0022   0.0047   0.0007   0.0012   0.0003  -0.01    4.4
2023/11/15 18:05:13.000   46.089631945  -79.342806030   233.2827   1  24   0.0024   0.0022   0.0047   0.0007   0.0012   0.0003  -0.01    4.4
2023/11/15 18:05:14.000   46.089639935  -79.342802439   233.2614   1  24   0.0024   0.0022   0.0047   0.0007   0.0011   0.0004  -0.01    4.3
2023/11/15 18:05:15.000   46.089645898  -79.342800213   233.1089   1  24   0.0025   0.0023   0.0048   0.0009   0.0007  -0.0003  -0.01    5.0
2023/11/15 18:05:16.000   46.089646700  -79.342800533   233.0436   1  24   0.0025   0.0023   0.0048   0.0009   0.0008  -0.0004  -0.01    5.0
2023/11/15 18:05:17.000   46.089649855  -79.342797747   233.2196   1  24   0.0024   0.0022   0.0047   0.0007   0.0011   0.0004  -0.01    4.7
2023/11/15 18:05:18.000   46.089651007  -79.342798009   233.2300   1  24   0.0024   0.0022   0.0047   0.0007   0.0012   0.0003  -0.01    4.7
2023/11/15 18:05:19.000   46.089650087  -79.342798409   233.2331   1  24   0.0024   0.0022   0.0047   0.0007   0.0012   0.0003  -0.01    4.7
2023/11/15 18:05:20.000   46.089650448  -79.342798679   233.2436   1  24   0.0024   0.0022   0.0047   0.0007   0.0012   0.0002  -0.01    4.7
2023/11/15 18:05:21.000   46.089653641  -79.342804040   233.2278   1  24   0.0024   0.0022   0.0047   0.0007   0.0012   0.0002  -0.01    4.7
2023/11/15 18:05:22.000   46.089659708  -79.342810965   233.2961   1  24   0.0024   0.0022   0.0047   0.0007   0.0012   0.0002  -0.01    4.7
2023/11/15 18:05:23.000   46.089661745  -79.342812868   233.3097   1  23   0.0024   0.0022   0.0047   0.0007   0.0013   0.0003  -0.01    3.5
2023/11/15 18:05:24.000   46.089664934  -79.342816430   233.2708   1  24   0.0024   0.0022   0.0047   0.0007   0.0012   0.0002  -0.01    3.7
2023/11/15 18:05:25.000   46.089669205  -79.342826006   233.3043   1  24   0.0024   0.0022   0.0047   0.0007   0.0012   0.0002  -0.01    4.0
2023/11/15 18:05:26.000   46.089673068  -79.342829870   233.1942   1  24   0.0024   0.0022   0.0047   0.0007   0.0011   0.0004  -0.01    4.3
2023/11/15 18:05:27.000   46.089675629  -79.342828778   233.3430   1  24   0.0024   0.0022   0.0047   0.0007   0.0011   0.0004  -0.01    4.6
2023/11/15 18:05:28.000   46.089676171  -79.342829862   233.3774   1  24   0.0024   0.0022   0.0047   0.0007   0.0011   0.0004  -0.01    4.7
2023/11/15 18:05:29.000   46.089676206  -79.342830015   233.3772   1  24   0.0024   0.0022   0.0047   0.0007   0.0011   0.0004  -0.01    4.7
2023/11/15 18:05:30.000   46.089677007  -79.342833569   233.3757   1  24   0.0024   0.0022   0.0047   0.0007   0.0011   0.0004  -0.01    4.7
2023/11/15 18:05:31.000   46.089682376  -79.342841766   233.4187   1  24   0.0024   0.0022   0.0047   0.0007   0.0012   0.0002  -0.01    4.6
2023/11/15 18:05:32.000   46.089684072  -79.342843586   233.4295   1  24   0.0024   0.0022   0.0047   0.0007   0.0012   0.0002  -0.01    4.6
2023/11/15 18:05:33.000   46.089686544  -79.342841859   233.3781   1  24   0.0024   0.0022   0.0047   0.0007   0.0012   0.0002  -0.01    4.6
2023/11/15 18:05:34.000   46.089694674  -79.342837773   233.3723   1  24   0.0024   0.0022   0.0047   0.0007   0.0012   0.0002  -0.01    4.6
2023/11/15 18:05:35.000   46.089699868  -79.342833931   233.4058   1  24   0.0024   0.0022   0.0047   0.0007   0.0011   0.0004  -0.01    4.6
2023/11/15 18:05:36.000   46.089700648  -79.342835195   233.3984   1  24   0.0024   0.0022   0.0047   0.0007   0.0011   0.0004  -0.01    4.6
2023/11/15 18:05:37.000   46.089702335  -79.342827465   233.3615   1  23   0.0024   0.0023   0.0048   0.0006   0.0010   0.0006  -0.01    4.6
2023/11/15 18:05:38.000   46.089703355  -79.342816424   233.2230   1  24   0.0024   0.0022   0.0047   0.0007   0.0011   0.0004  -0.01    4.6
2023/11/15 18:05:39.000   46.089703744  -79.342806447   233.2399   1  24   0.0024   0.0022   0.0047   0.0007   0.0011   0.0004  -0.01    4.6
2023/11/15 18:05:40.000   46.089702418  -79.342804933   233.2065   1  23   0.0024   0.0022   0.0048   0.0007   0.0011   0.0005  -0.01    4.6
2023/11/15 18:05:41.000   46.089696925  -79.342800148   233.1062   1  24   0.0024   0.0022   0.0047   0.0007   0.0012   0.0001  -0.01    4.5
2023/11/15 18:05:42.000   46.089693149  -79.342789573   233.0435   1  24   0.0024   0.0022   0.0047   0.0007   0.0012   0.0001  -0.01    4.5
2023/11/15 18:05:43.000   46.089693326  -79.342784730   232.8636   1  24   0.0024   0.0022   0.0047   0.0007   0.0012   0.0001  -0.01    4.5
2023/11/15 18:05:44.000   46.089691740  -79.342787627   233.0831   1  24   0.0024   0.0022   0.0047   0.0007   0.0012   0.0001  -0.01    4.5
2023/11/15 18:05:45.000   46.089691475  -79.342786959   233.0912   1  24   0.0024   0.0022   0.0047   0.0007   0.0012   0.0001  -0.01    4.5
2023/11/15 18:05:46.000   46.089687134  -79.342788037   233.1275   1  24   0.0024   0.0022   0.0047   0.0007   0.0012   0.0001  -0.01    4.4
2023/11/15 18:05:47.000   46.089685905  -79.342781434   232.8583   1  24   0.0024   0.0022   0.0047   0.0007   0.0012   0.0001  -0.01    4.4
2023/11/15 18:05:48.000   46.089685436  -79.342784775   232.8784   1  23   0.0026   0.0023   0.0049   0.0007   0.0011   0.0012  -0.01    4.5
2023/11/15 18:05:49.000   46.089684401  -79.342784685   233.0578   1  23   0.0024   0.0022   0.0047   0.0007   0.0012   0.0005  -0.01    4.4
2023/11/15 18:05:50.000   46.089682404  -79.342786355   233.0855   1  23   0.0024   0.0022   0.0047   0.0007   0.0012   0.0005  -0.01    4.4
2023/11/15 18:05:51.000   46.089682282  -79.342785979   233.0965   1  23   0.0024   0.0022   0.0047   0.0007   0.0012   0.0005  -0.01    4.4
2023/11/15 18:05:52.000   46.089682695  -79.342785151   233.1105   1  23   0.0024   0.0022   0.0047   0.0007   0.0012   0.0005  -0.01    4.3
2023/11/15 18:05:53.000   46.089683035  -79.342784379   233.1173   1  22   0.0024   0.0023   0.0049   0.0005   0.0008   0.0008  -0.01    4.4
2023/11/15 18:05:54.000   46.089681403  -79.342784281   233.1137   1  24   0.0024   0.0022   0.0047   0.0007   0.0012   0.0001  -0.01    4.3
2023/11/15 18:05:55.000   46.089678165  -79.342775314   233.0632   1  24   0.0024   0.0022   0.0047   0.0007   0.0012   0.0001  -0.01    4.3
2023/11/15 18:05:56.000   46.089671968  -79.342768498   232.9779   1  23   0.0024   0.0022   0.0047   0.0007   0.0011   0.0004  -0.01    4.4
2023/11/15 18:05:57.000   46.089669233  -79.342759088   232.7354   1  24   0.0024   0.0022   0.0047   0.0007   0.0012   0.0001  -0.01    4.3
2023/11/15 18:05:58.000   46.089668593  -79.342762012   232.8790   1  24   0.0024   0.0022   0.0047   0.0007   0.0012   0.0001  -0.01    4.3
2023/11/15 18:05:59.000   46.089668819  -79.342760445   232.8559   1  24   0.0024   0.0022   0.0047   0.0007   0.0012   0.0001  -0.01    4.3
2023/11/15 18:06:00.000   46.089667275  -79.342763298   232.9985   1  24   0.0024   0.0022   0.0047   0.0007   0.0012   0.0001  -0.01    4.3
2023/11/15 18:06:01.000   46.089667561  -79.342763191   232.9987   1  24   0.0024   0.0022   0.0047   0.0007   0.0012   0.0001  -0.01    4.3
2023/11/15 18:06:02.000   46.089666684  -79.342762193   233.0074   1  24   0.0024   0.0022   0.0047   0.0007   0.0012   0.0002  -0.01    4.3
2023/11/15 18:06:03.000   46.089661442  -79.342765376   233.0755   1  24   0.0026   0.0022   0.0048   0.0009   0.0013   0.0009  -0.01    4.3
2023/11/15 18:06:04.000   46.089660516  -79.342763261   232.9824   1  22   0.0024   0.0023   0.0049   0.0005   0.0008   0.0008  -0.01    4.4
2023/11/15 18:06:05.000   46.089657816  -79.342761561   232.9733   1  22   0.0024   0.0023   0.0049   0.0005   0.0008   0.0008  -0.01    4.4
2023/11/15 18:06:06.000   46.089659057  -79.342761022   233.0065   1  24   0.0024   0.0022   0.0047   0.0007   0.0012   0.0002  -0.01    4.3
2023/11/15 18:06:07.000   46.089659031  -79.342760320   233.0091   1  24   0.0024   0.0022   0.0047   0.0007   0.0012   0.0002  -0.01    4.3
2023/11/15 18:06:08.000   46.089659557  -79.342751702   232.9972   1  24   0.0024   0.0022   0.0047   0.0007   0.0012   0.0002  -0.01    4.2
2023/11/15 18:06:09.000   46.089660940  -79.342750254   232.9418   1  24   0.0024   0.0022   0.0047   0.0007   0.0012   0.0002  -0.01    4.2
2023/11/15 18:06:10.000   46.089663623  -79.342747084   232.9563   1  24   0.0024   0.0022   0.0047   0.0007   0.0012   0.0002  -0.01    4.2
2023/11/15 18:06:11.000   46.089664589  -79.342746490   232.9674   1  24   0.0024   0.0022   0.0047   0.0007   0.0012   0.0002  -0.01    4.2
2023/11/15 18:06:12.000   46.089664613  -79.342746526   232.9634   1  24   0.0024   0.0022   0.0047   0.0007   0.0012   0.0003  -0.01    4.2
2023/11/15 18:06:13.000   46.089663252  -79.342748799   232.9656   1  24   0.0024   0.0022   0.0047   0.0007   0.0012   0.0003  -0.01    4.2
2023/11/15 18:06:14.000   46.089663814  -79.342750617   232.9865   1  24   0.0024   0.0022   0.0047   0.0007   0.0012   0.0004  -0.01    4.2
2023/11/15 18:06:15.000   46.089670569  -79.342751142   232.9336   1  24   0.0024   0.0023   0.0048   0.0006   0.0010   0.0005  -0.01    4.3
2023/11/15 18:06:16.000   46.089679939  -79.342750973   232.7979   1  24   0.0026   0.0023   0.0049   0.0008   0.0012   0.0011  -0.01    4.2
2023/11/15 18:06:17.000   46.089683832  -79.342750050   232.7179   1  24   0.0024   0.0022   0.0047   0.0007   0.0011   0.0004  -0.01    4.2
2023/11/15 18:06:18.000   46.089685271  -79.342745719   232.9013   1  24   0.0024   0.0022   0.0047   0.0007   0.0011   0.0004  -0.01    4.2
2023/11/15 18:06:19.000   46.089685893  -79.342745506   232.9220   1  24   0.0024   0.0022   0.0047   0.0007   0.0011   0.0004  -0.01    4.3
2023/11/15 18:06:20.000   46.089685622  -79.342748666   232.9222   1  24   0.0024   0.0023   0.0048   0.0007   0.0011   0.0005  -0.01    4.2
2023/11/15 18:06:21.000   46.089688739  -79.342743583   232.8960   1  24   0.0024   0.0022   0.0047   0.0007   0.0012   0.0003  -0.01    4.2
2023/11/15 18:06:22.000   46.089687304  -79.342737485   232.8126   1  24   0.0024   0.0022   0.0047   0.0007   0.0012   0.0003  -0.01    4.2
2023/11/15 18:06:23.000   46.089686842  -79.342726335   232.7911   1  22   0.0024   0.0023   0.0048   0.0006   0.0010   0.0007  -0.01    4.2
2023/11/15 18:06:24.000   46.089687919  -79.342721805   232.7796   1  24   0.0024   0.0022   0.0048   0.0007   0.0011   0.0004  -0.01    4.2
2023/11/15 18:06:25.000   46.089687825  -79.342720613   232.7796   1  24   0.0024   0.0022   0.0047   0.0007   0.0012   0.0002  -0.01    4.2
2023/11/15 18:06:26.000   46.089689869  -79.342715196   232.7163   1  24   0.0024   0.0022   0.0048   0.0007   0.0011   0.0004  -0.01    4.2
2023/11/15 18:06:27.000   46.089693312  -79.342710811   232.7289   1  24   0.0024   0.0022   0.0047   0.0007   0.0012   0.0002  -0.01    4.2
2023/11/15 18:06:28.000   46.089696222  -79.342708289   232.7300   1  24   0.0024   0.0022   0.0047   0.0007   0.0012   0.0002  -0.01    4.2
2023/11/15 18:06:29.000   46.089697837  -79.342708668   232.7561   1  24   0.0024   0.0022   0.0048   0.0007   0.0011   0.0004  -0.01    4.1
2023/11/15 18:06:30.000   46.089694512  -79.342707772   232.7175   1  24   0.0024   0.0022   0.0047   0.0007   0.0013   0.0002  -0.01    3.1
2023/11/15 18:06:31.000   46.089688967  -79.342710393   232.7669   1  24   0.0024   0.0022   0.0047   0.0007   0.0013   0.0002  -0.01    3.3
2023/11/15 18:06:32.000   46.089682611  -79.342707829   232.7101   1  24   0.0024   0.0022   0.0047   0.0007   0.0013   0.0002  -0.01    3.5
2023/11/15 18:06:33.000   46.089679608  -79.342709811   232.7271   1  24   0.0024   0.0022   0.0047   0.0007   0.0013   0.0001  -0.01    3.7
2023/11/15 18:06:34.000   46.089674911  -79.342706635   232.7259   1  24   0.0024   0.0022   0.0047   0.0007   0.0013   0.0001  -0.01    3.9
2023/11/15 18:06:35.000   46.089667005  -79.342701979   232.8224   1  24   0.0024   0.0022   0.0047   0.0007   0.0013   0.0001  -0.01    4.0
2023/11/15 18:06:36.000   46.089663231  -79.342699290   232.7923   1  24   0.0024   0.0022   0.0047   0.0007   0.0013   0.0001  -0.01    4.0
2023/11/15 18:06:37.000   46.089659088  -79.342696612   232.7455   1  24   0.0024   0.0022   0.0047   0.0007   0.0013   0.0001  -0.01    4.0
2023/11/15 18:06:38.000   46.089650317  -79.342689312   232.7374   1  24   0.0024   0.0022   0.0047   0.0007   0.0013   0.0001  -0.01    4.0
2023/11/15 18:06:39.000   46.089645632  -79.342687123   232.7292   1  23   0.0024   0.0022   0.0047   0.0007   0.0012   0.0005  -0.01    4.0
2023/11/15 18:06:40.000   46.089642584  -79.342684013   232.7534   1  24   0.0024   0.0022   0.0047   0.0007   0.0013   0.0001  -0.01    4.0
2023/11/15 18:06:41.000   46.089634347  -79.342678873   232.6686   1  24   0.0024   0.0022   0.0047   0.0007   0.0013   0.0001  -0.01    4.0
2023/11/15 18:06:42.000   46.089627714  -79.342674690   232.6730   1  24   0.0024   0.0022   0.0047   0.0007   0.0013   0.0001  -0.01    4.0
2023/11/15 18:06:43.000   46.089626578  -79.342672399   232.6745   1  24   0.0024   0.0022   0.0047   0.0007   0.0013   0.0001  -0.01    4.0
2023/11/15 18:06:44.000   46.089623059  -79.342671578   232.6291   1  24   0.0024   0.0022   0.0047   0.0007   0.0013   0.0001  -0.01    4.0
2023/11/15 18:06:45.000   46.089619301  -79.342665549   232.5982   1  23   0.0024   0.0022   0.0047   0.0007   0.0012   0.0005  -0.01    4.0
2023/11/15 18:06:46.000   46.089616302  -79.342665203   232.5880   1  24   0.0024   0.0022   0.0047   0.0007   0.0013   0.0001  -0.01    4.0
2023/11/15 18:06:47.000   46.089616749  -79.342663822   232.4834   1  22   0.0024   0.0023   0.0049   0.0005   0.0008   0.0008  -0.01    4.1
2023/11/15 18:06:48.000   46.089617250  -79.342662652   232.5673   1  22   0.0026   0.0023   0.0050   0.0007   0.0010   0.0013  -0.01    4.1
2023/11/15 18:06:49.000   46.089611881  -79.342663221   232.6488   1  22   0.0024   0.0023   0.0049   0.0005   0.0008   0.0008  -0.01    4.1
2023/11/15 18:06:50.000   46.089612543  -79.342661981   232.6777   1  24   0.0024   0.0022   0.0047   0.0007   0.0013   0.0001  -0.01    4.0
2023/11/15 18:06:51.000   46.089612752  -79.342662198   232.6710   1  24   0.0024   0.0022   0.0047   0.0007   0.0013   0.0001  -0.01    3.9
2023/11/15 18:06:52.000   46.089612758  -79.342662565   232.6599   1  24   0.0024   0.0022   0.0047   0.0007   0.0013   0.0001  -0.01    3.9
2023/11/15 18:06:53.000   46.089612654  -79.342662076   232.6692   1  24   0.0024   0.0022   0.0047   0.0007   0.0013   0.0001  -0.01    3.9
2023/11/15 18:06:54.000   46.089613227  -79.342662668   232.6604   1  24   0.0024   0.0022   0.0047   0.0007   0.0013   0.0001  -0.01    3.9
2023/11/15 18:06:55.000   46.089613353  -79.342662219   232.6732   1  24   0.0024   0.0022   0.0047   0.0007   0.0013   0.0001  -0.01    3.9
2023/11/15 18:06:56.000   46.089613506  -79.342662268   232.6739   1  24   0.0024   0.0022   0.0047   0.0007   0.0013   0.0001  -0.01    3.9
2023/11/15 18:06:57.000   46.089613515  -79.342662317   232.6695   1  24   0.0024   0.0022   0.0047   0.0007   0.0013   0.0001  -0.01    3.9
2023/11/15 18:06:58.000   46.089613554  -79.342662563   232.6648   1  24   0.0024   0.0022   0.0047   0.0007   0.0013   0.0001  -0.01    3.8
2023/11/15 18:06:59.000   46.089613530  -79.342662659   232.6629   1  24   0.0024   0.0022   0.0047   0.0007   0.0013   0.0001  -0.01    3.8
2023/11/15 18:07:00.000   46.089613496  -79.342662690   232.6625   1  24   0.0024   0.0022   0.0047   0.0007   0.0013   0.0001  -0.01    3.8
2023/11/15 18:07:01.000   46.089613387  -79.342662974   232.6601   1  24   0.0024   0.0022   0.0047   0.0007   0.0013   0.0001  -0.01    3.8
2023/11/15 18:07:02.000   46.089613466  -79.342662691   232.6619   1  24   0.0024   0.0022   0.0047   0.0007   0.0013   0.0001  -0.01    3.8
2023/11/15 18:07:03.000   46.089613426  -79.342662829   232.6637   1  24   0.0024   0.0022   0.0047   0.0007   0.0013   0.0001  -0.01    3.8
2023/11/15 18:07:04.000   46.089613414  -79.342662947   232.6577   1  24   0.0024   0.0022   0.0047   0.0007   0.0013   0.0001  -0.01    3.8
2023/11/15 18:07:05.000   46.089613509  -79.342662675   232.6656   1  24   0.0024   0.0022   0.0047   0.0007   0.0013   0.0001  -0.01    3.8
2023/11/15 18:07:06.000   46.089613535  -79.342662721   232.6608   1  24   0.0024   0.0022   0.0047   0.0007   0.0013   0.0001  -0.01    3.8
2023/11/15 18:07:07.000   46.089613685  -79.342662722   232.6624   1  24   0.0024   0.0022   0.0047   0.0007   0.0013   0.0001  -0.01    3.8
2023/11/15 18:07:08.000   46.089613735  -79.342662934   232.6608   1  24   0.0024   0.0022   0.0047   0.0007   0.0013   0.0001  -0.01    3.7
2023/11/15 18:07:09.000   46.089613647  -79.342663085   232.6569   1  23   0.0024   0.0022   0.0048   0.0007   0.0011   0.0004  -0.01    3.7
2023/11/15 18:07:10.000   46.089613917  -79.342662756   232.6720   1  23   0.0024   0.0022   0.0048   0.0007   0.0011   0.0004  -0.01    3.7
2023/11/15 18:07:11.000   46.089614269  -79.342662483   232.6780   1  24   0.0024   0.0022   0.0047   0.0007   0.0013   0.0001  -0.01    3.7
2023/11/15 18:07:12.000   46.089614308  -79.342662280   232.6776   1  24   0.0024   0.0022   0.0047   0.0007   0.0013   0.0001  -0.01    3.7
2023/11/15 18:07:13.000   46.089614180  -79.342662284   232.6761   1  24   0.0024   0.0022   0.0047   0.0007   0.0013   0.0001  -0.01    3.7
2023/11/15 18:07:14.000   46.089613799  -79.342663101   232.6564   1  24   0.0024   0.0022   0.0047   0.0007   0.0013   0.0001  -0.01    3.7
2023/11/15 18:07:15.000   46.089613777  -79.342663081   232.6620   1  24   0.0024   0.0022   0.0047   0.0007   0.0013   0.0001  -0.01    3.7
2023/11/15 18:07:16.000   46.089613799  -79.342662941   232.6601   1  24   0.0024   0.0022   0.0047   0.0007   0.0013   0.0001  -0.01    3.6
2023/11/15 18:07:17.000   46.089613729  -79.342663028   232.6605   1  24   0.0024   0.0022   0.0047   0.0007   0.0013   0.0001  -0.01    3.6
2023/11/15 18:07:18.000   46.089613751  -79.342662954   232.6629   1  24   0.0024   0.0022   0.0047   0.0007   0.0013   0.0001  -0.01    3.6
2023/11/15 18:07:19.000   46.089613736  -79.342662949   232.6628   1  24   0.0024   0.0022   0.0047   0.0008   0.0013   0.0001  -0.01    3.6
2023/11/15 18:07:20.000   46.089613711  -79.342663075   232.6590   1  24   0.0024   0.0022   0.0047   0.0008   0.0013   0.0001  -0.01    3.6
2023/11/15 18:07:21.000   46.089613694  -79.342663014   232.6607   1  24   0.0024   0.0022   0.0047   0.0008   0.0013   0.0001  -0.01    3.6
2023/11/15 18:07:22.000   46.089613748  -79.342662847   232.6628   1  24   0.0024   0.0022   0.0047   0.0008   0.0013   0.0001  -0.01    3.6
2023/11/15 18:07:23.000   46.089613809  -79.342662396   232.6752   1  24   0.0024   0.0022   0.0047   0.0008   0.0013   0.0001  -0.01    3.6
2023/11/15 18:07:24.000   46.089613700  -79.342662476   232.6712   1  24   0.0024   0.0022   0.0047   0.0008   0.0013   0.0001  -0.01    3.5
2023/11/15 18:07:25.000   46.089613741  -79.342662780   232.6650   1  24   0.0024   0.0022   0.0047   0.0008   0.0013   0.0001  -0.01    3.5
2023/11/15 18:07:26.000   46.089613826  -79.342662830   232.6622   1  24   0.0024   0.0022   0.0047   0.0008   0.0013   0.0001  -0.01    3.5
2023/11/15 18:07:27.000   46.089613869  -79.342662909   232.6616   1  24   0.0024   0.0022   0.0047   0.0008   0.0013   0.0001  -0.01    3.5
2023/11/15 18:07:28.000   46.089613835  -79.342662940   232.6616   1  23   0.0024   0.0022   0.0048   0.0007   0.0011   0.0004  -0.01    3.5
2023/11/15 18:07:29.000   46.089613831  -79.342662913   232.6593   1  23   0.0024   0.0022   0.0048   0.0007   0.0011   0.0004  -0.01    3.5
2023/11/15 18:07:30.000   46.089613868  -79.342662958   232.6631   1  23   0.0024   0.0022   0.0048   0.0007   0.0012   0.0004  -0.01    3.5
2023/11/15 18:07:31.000   46.089613811  -79.342662984   232.6592   1  23   0.0024   0.0022   0.0048   0.0007   0.0012   0.0004  -0.01    3.5
2023/11/15 18:07:32.000   46.089613875  -79.342662622   232.6658   1  24   0.0024   0.0022   0.0047   0.0008   0.0013   0.0001  -0.01    3.5
2023/11/15 18:07:33.000   46.089613728  -79.342662749   232.6660   1  24   0.0024   0.0022   0.0047   0.0008   0.0013   0.0001  -0.01    3.5
2023/11/15 18:07:34.000   46.089613762  -79.342660042   232.6799   1  24   0.0024   0.0022   0.0047   0.0008   0.0013   0.0001  -0.01    3.5
2023/11/15 18:07:35.000   46.089614569  -79.342655058   232.5125   1  24   0.0024   0.0023   0.0048   0.0008   0.0011  -0.0004  -0.01    4.1
2023/11/15 18:07:36.000   46.089614517  -79.342654344   232.4441   1  24   0.0024   0.0024   0.0048   0.0006   0.0014  -0.0007  -0.01    4.5
2023/11/15 18:07:37.000   46.089614689  -79.342653616   232.3528   1  24   0.0024   0.0024   0.0048   0.0006   0.0014  -0.0007  -0.01    4.5
2023/11/15 18:07:38.000   46.089614618  -79.342653570   232.3356   1  24   0.0026   0.0027   0.0050   0.0007   0.0018   0.0005  -0.01    5.0
2023/11/15 18:07:39.000   46.089614553  -79.342653564   232.3403   1  24   0.0026   0.0027   0.0050   0.0007   0.0018   0.0005  -0.01    5.0
2023/11/15 18:07:40.000   46.089614051  -79.342659447   232.6757   1  24   0.0024   0.0023   0.0048   0.0005   0.0015  -0.0006  -0.01    3.5
2023/11/15 18:07:41.000   46.089613809  -79.342662199   232.6711   1  24   0.0024   0.0022   0.0047   0.0008   0.0013   0.0001  -0.01    3.5
2023/11/15 18:07:42.000   46.089613673  -79.342662463   232.6716   1  24   0.0024   0.0022   0.0047   0.0008   0.0013   0.0001  -0.01    3.5
2023/11/15 18:07:43.000   46.089613737  -79.342662202   232.6705   1  24   0.0024   0.0022   0.0047   0.0008   0.0013   0.0001  -0.01    3.5
2023/11/15 18:07:44.000   46.089613808  -79.342662422   232.6738   1  24   0.0024   0.0022   0.0047   0.0008   0.0013   0.0001  -0.01    3.5
2023/11/15 18:07:45.000   46.089613574  -79.342662415   232.6693   1  24   0.0024   0.0022   0.0047   0.0008   0.0013   0.0001  -0.01    3.4
2023/11/15 18:07:46.000   46.089613027  -79.342662292   232.6703   1  24   0.0024   0.0022   0.0047   0.0008   0.0013   0.0001  -0.01    3.4
2023/11/15 18:07:47.000   46.089613592  -79.342663120   232.6636   1  24   0.0024   0.0022   0.0047   0.0008   0.0013   0.0001  -0.01    3.4
2023/11/15 18:07:48.000   46.089614258  -79.342662881   232.6709   1  24   0.0024   0.0022   0.0047   0.0008   0.0013   0.0001  -0.01    3.4
2023/11/15 18:07:49.000   46.089613727  -79.342663440   232.6520   1  24   0.0024   0.0022   0.0047   0.0008   0.0013   0.0001  -0.01    3.4
2023/11/15 18:07:50.000   46.089613472  -79.342663674   232.6431   1  23   0.0024   0.0023   0.0048   0.0007   0.0012   0.0004  -0.01    3.4
2023/11/15 18:07:51.000   46.089613129  -79.342663642   232.6422   1  24   0.0024   0.0022   0.0047   0.0008   0.0013   0.0001  -0.01    3.4
2023/11/15 18:07:52.000   46.089613036  -79.342663508   232.6443   1  24   0.0024   0.0022   0.0047   0.0008   0.0013   0.0001  -0.01    3.4
2023/11/15 18:07:53.000   46.089614011  -79.342663495   232.6599   1  24   0.0024   0.0022   0.0047   0.0008   0.0013   0.0001  -0.01    3.4
2023/11/15 18:07:54.000   46.089612392  -79.342665007   232.6766   1  24   0.0024   0.0022   0.0047   0.0008   0.0013   0.0001  -0.01    3.4
2023/11/15 18:07:55.000   46.089611300  -79.342662955   232.6390   1  24   0.0024   0.0022   0.0047   0.0008   0.0013   0.0001  -0.01    3.4
2023/11/15 18:07:56.000   46.089606374  -79.342663300   232.6915   1  24   0.0024   0.0022   0.0047   0.0008   0.0013   0.0001  -0.01    3.4
2023/11/15 18:07:57.000   46.089603075  -79.342660614   232.6726   1  24   0.0025   0.0022   0.0048   0.0009   0.0014   0.0010  -0.01    3.4
2023/11/15 18:07:58.000   46.089600875  -79.342660055   232.6831   1  24   0.0025   0.0022   0.0048   0.0009   0.0014   0.0010  -0.01    3.4
2023/11/15 18:07:59.000   46.089593173  -79.342659998   232.6718   1  24   0.0024   0.0022   0.0047   0.0008   0.0013   0.0001  -0.01    3.4
2023/11/15 18:08:00.000   46.089587946  -79.342652431   232.6370   1  24   0.0024   0.0022   0.0047   0.0008   0.0013   0.0001  -0.01    3.4
2023/11/15 18:08:01.000   46.089588644  -79.342652808   232.6518   1  24   0.0024   0.0022   0.0047   0.0008   0.0013   0.0001  -0.01    3.4
2023/11/15 18:08:02.000   46.089588007  -79.342653226   232.6440   1  24   0.0024   0.0022   0.0047   0.0008   0.0013   0.0001  -0.01    3.4
2023/11/15 18:08:03.000   46.089589065  -79.342652108   232.6533   1  24   0.0024   0.0022   0.0047   0.0008   0.0013   0.0001  -0.01    3.4
2023/11/15 18:08:04.000   46.089584435  -79.342653879   232.6600   1  24   0.0024   0.0022   0.0047   0.0008   0.0013   0.0001  -0.01    3.4
2023/11/15 18:08:05.000   46.089580387  -79.342651019   232.6479   1  24   0.0024   0.0022   0.0047   0.0008   0.0013   0.0001  -0.01    3.4
2023/11/15 18:08:06.000   46.089577751  -79.342652102   232.6464   1  24   0.0024   0.0022   0.0047   0.0008   0.0013   0.0001  -0.01    3.4
2023/11/15 18:08:07.000   46.089568684  -79.342651244   232.6631   1  24   0.0024   0.0022   0.0047   0.0008   0.0013   0.0002  -0.01    3.4
2023/11/15 18:08:08.000   46.089560272  -79.342651681   232.6804   1  23   0.0024   0.0022   0.0047   0.0008   0.0013   0.0003  -0.01    3.4
2023/11/15 18:08:09.000   46.089557663  -79.342652584   232.6992   1  24   0.0024   0.0022   0.0047   0.0007   0.0013   0.0002  -0.01    3.4
2023/11/15 18:08:10.000   46.089553981  -79.342651615   232.7135   1  24   0.0024   0.0022   0.0047   0.0007   0.0013   0.0002  -0.01    3.4
2023/11/15 18:08:11.000   46.089545370  -79.342650384   232.6703   1  24   0.0024   0.0023   0.0048   0.0007   0.0012   0.0004  -0.01    3.7
2023/11/15 18:08:12.000   46.089540271  -79.342650735   232.7043   1  24   0.0024   0.0023   0.0048   0.0007   0.0012   0.0004  -0.01    3.7
2023/11/15 18:08:13.000   46.089537786  -79.342649431   232.7116   1  24   0.0024   0.0023   0.0048   0.0007   0.0012   0.0004  -0.01    3.7
2023/11/15 18:08:14.000   46.089532032  -79.342650375   232.6976   1  23   0.0024   0.0023   0.0048   0.0007   0.0012   0.0005  -0.01    3.7
2023/11/15 18:08:15.000   46.089529447  -79.342650463   232.7304   1  23   0.0024   0.0023   0.0048   0.0007   0.0012   0.0005  -0.01    3.7
2023/11/15 18:08:16.000   46.089524873  -79.342651192   232.6905   1  24   0.0024   0.0023   0.0048   0.0007   0.0012   0.0004  -0.01    3.7
2023/11/15 18:08:17.000   46.089516342  -79.342651759   232.7489   1  24   0.0024   0.0023   0.0048   0.0007   0.0012   0.0004  -0.01    3.7
2023/11/15 18:08:18.000   46.089512985  -79.342652676   232.7405   1  24   0.0024   0.0023   0.0048   0.0007   0.0012   0.0004  -0.01    3.8
2023/11/15 18:08:19.000   46.089512441  -79.342650860   232.7507   1  24   0.0024   0.0023   0.0048   0.0007   0.0012   0.0005  -0.01    3.8
2023/11/15 18:08:20.000   46.089507591  -79.342642658   232.7156   1  24   0.0024   0.0022   0.0047   0.0008   0.0013   0.0004  -0.01    3.5
2023/11/15 18:08:21.000   46.089501374  -79.342630535   232.5409   1  24   0.0024   0.0023   0.0048   0.0007   0.0012   0.0007  -0.01    3.8
2023/11/15 18:08:22.000   46.089495494  -79.342618932   232.5445   1  24   0.0025   0.0022   0.0048   0.0008   0.0013   0.0007  -0.01    3.5
2023/11/15 18:08:23.000   46.089489383  -79.342611583   232.4861   1  24   0.0025   0.0023   0.0048   0.0008   0.0012   0.0008  -0.01    3.8
2023/11/15 18:08:24.000   46.089487169  -79.342605915   232.3964   1  22   0.0026   0.0023   0.0050   0.0006   0.0010   0.0013  -0.01    3.8
2023/11/15 18:08:25.000   46.089488503  -79.342605403   232.3099   1  22   0.0026   0.0023   0.0050   0.0006   0.0010   0.0013  -0.01    3.9
2023/11/15 18:08:26.000   46.089485238  -79.342603654   232.4284   1  22   0.0026   0.0023   0.0050   0.0006   0.0010   0.0013  -0.01    3.9
2023/11/15 18:08:27.000   46.089485433  -79.342603543   232.4352   1  23   0.0025   0.0023   0.0049   0.0007   0.0010   0.0010  -0.01    3.8
2023/11/15 18:08:28.000   46.089485994  -79.342602490   232.4572   1  23   0.0025   0.0023   0.0049   0.0007   0.0010   0.0009  -0.01    3.8
2023/11/15 18:08:29.000   46.089487508  -79.342593706   232.4892   1  24   0.0024   0.0023   0.0048   0.0007   0.0012   0.0007  -0.01    3.8
2023/11/15 18:08:30.000   46.089491199  -79.342582799   232.3898   1  23   0.0025   0.0023   0.0048   0.0007   0.0011   0.0008  -0.01    3.8
2023/11/15 18:08:31.000   46.089494140  -79.342566183   232.3554   1  24   0.0024   0.0023   0.0048   0.0007   0.0012   0.0006  -0.01    3.8
2023/11/15 18:08:32.000   46.089494075  -79.342549977   232.2028   1  24   0.0024   0.0023   0.0048   0.0007   0.0012   0.0006  -0.01    3.8
2023/11/15 18:08:33.000   46.089495284  -79.342533237   232.1786   1  24   0.0024   0.0023   0.0048   0.0007   0.0012   0.0006  -0.01    3.8
2023/11/15 18:08:34.000   46.089496080  -79.342517830   231.9808   1  23   0.0024   0.0023   0.0048   0.0007   0.0011   0.0007  -0.01    3.8
2023/11/15 18:08:35.000   46.089496265  -79.342507863   231.9784   1  22   0.0025   0.0023   0.0049   0.0006   0.0009   0.0009  -0.01    3.8
2023/11/15 18:08:36.000   46.089496376  -79.342505211   231.9635   1  22   0.0024   0.0023   0.0049   0.0005   0.0009   0.0008  -0.01    3.2
2023/11/15 18:08:37.000   46.089495143  -79.342501160   232.0428   1  24   0.0024   0.0023   0.0048   0.0007   0.0012   0.0005  -0.01    3.4
2023/11/15 18:08:38.000   46.089496364  -79.342501096   232.0716   1  24   0.0024   0.0023   0.0048   0.0007   0.0012   0.0004  -0.01    3.6
2023/11/15 18:08:39.000   46.089500647  -79.342495991   232.0717   1  24   0.0024   0.0023   0.0048   0.0007   0.0012   0.0004  -0.01    3.8
2023/11/15 18:08:40.000   46.089501007  -79.342497173   232.0231   1  24   0.0024   0.0023   0.0048   0.0007   0.0012   0.0004  -0.01    3.8
2023/11/15 18:08:41.000   46.089502146  -79.342496687   232.0232   1  24   0.0024   0.0023   0.0048   0.0007   0.0012   0.0004  -0.01    3.8
2023/11/15 18:08:42.000   46.089502826  -79.342496694   232.0600   1  24   0.0024   0.0023   0.0048   0.0007   0.0012   0.0004  -0.01    3.8
2023/11/15 18:08:43.000   46.089503384  -79.342498367   232.0832   1  24   0.0024   0.0023   0.0048   0.0007   0.0012   0.0004  -0.01    3.8
2023/11/15 18:08:44.000   46.089503257  -79.342498217   232.0790   1  24   0.0024   0.0023   0.0048   0.0007   0.0012   0.0004  -0.01    3.8
2023/11/15 18:08:45.000   46.089503238  -79.342498068   232.0725   1  24   0.0024   0.0023   0.0048   0.0007   0.0012   0.0004  -0.01    3.8
2023/11/15 18:08:46.000   46.089503080  -79.342497758   232.0632   1  24   0.0024   0.0023   0.0048   0.0007   0.0012   0.0004  -0.01    3.8
2023/11/15 18:08:47.000   46.089502468  -79.342498519   232.0150   1  24   0.0024   0.0023   0.0048   0.0007   0.0012   0.0004  -0.01    3.8
2023/11/15 18:08:48.000   46.089509955  -79.342503275   232.0059   1  23   0.0024   0.0023   0.0048   0.0006   0.0010   0.0006  -0.01    3.9
2023/11/15 18:08:49.000   46.089511846  -79.342495503   231.8136   1  22   0.0024   0.0023   0.0049   0.0006   0.0009   0.0008  -0.01    3.8
2023/11/15 18:08:50.000   46.089512310  -79.342488190   232.0337   1  24   0.0024   0.0023   0.0048   0.0007   0.0012   0.0004  -0.01    3.8
2023/11/15 18:08:51.000   46.089512489  -79.342488405   232.0131   1  24   0.0024   0.0023   0.0048   0.0007   0.0012   0.0003  -0.01    3.8
2023/11/15 18:08:52.000   46.089516512  -79.342489227   231.9597   1  24   0.0024   0.0023   0.0048   0.0007   0.0011   0.0003  -0.01    3.8
2023/11/15 18:08:53.000   46.089519144  -79.342492808   231.9738   1  24   0.0024   0.0023   0.0048   0.0008   0.0011   0.0002  -0.01    3.8
2023/11/15 18:08:54.000   46.089521985  -79.342491255   231.9967   1  24   0.0024   0.0023   0.0048   0.0008   0.0011   0.0001  -0.01    3.8
