% program   : ES 1.7
% inp file  : F:\_GNSS Surveying\CryoSAR 2023-2024\2023-11-15\Emlid RS2 Rover\MagnaProbe_VegSurvey_ROVER_Files\ECCCreach3_raw_20231115171559_RINEX_3_03\ECCCreach3_raw_20231115171559.23O
% inp file  : F:\_GNSS Surveying\CryoSAR 2023-2024\2023-11-15\Emlid RS2 Basestation\ECCCreach1_raw_20231114233644_RINEX_3_03\ECCCreach1_raw_20231114233644.23P
% inp file  : F:\_GNSS Surveying\CryoSAR 2023-2024\2023-11-15\Emlid RS2 Basestation\ECCCreach1_raw_20231114233644_RINEX_3_03\ECCCreach1_raw_20231114233644.23O
% obs start : 2023/11/15 17:16:00.0 UTC (week2288 321378.0s)
% obs end   : 2023/11/15 17:46:02.0 UTC (week2288 323180.0s)
% ref pos   : 46.085005960 -79.346295870  225.3290
%
% (lat/lon/height=WGS84/ellipsoidal,Q=1:fix,2:float,3:sbas,4:dgps,5:single,6:ppp,ns=# of satellites)
%  UTC                   latitude(deg) longitude(deg)  height(m)   Q  ns   sdn(m)   sde(m)   sdu(m)  sdne(m)  sdeu(m)  sdun(m) age(s)  ratio
2023/11/15 17:16:00.000   46.089634389  -79.334505677   240.0513   2  27   0.0042   0.0042   0.0075   0.0010  -0.0010   0.0003  -0.01    0.0
2023/11/15 17:16:01.000   46.089634267  -79.334505716   240.0487   2  27   0.0044   0.0042   0.0077   0.0007  -0.0012   0.0016  -0.01    0.0
2023/11/15 17:16:02.000   46.089634048  -79.334505689   240.0576   2  27   0.0044   0.0042   0.0077   0.0007  -0.0012   0.0016  -0.01    0.0
2023/11/15 17:16:03.000   46.089633683  -79.334505757   240.0600   1  27   0.0040   0.0027   0.0071  -0.0012  -0.0012   0.0006  -0.01    3.6
2023/11/15 17:16:04.000   46.089633947  -79.334505983   240.0560   1  27   0.0040   0.0027   0.0071  -0.0012  -0.0012   0.0006  -0.01    3.6
2023/11/15 17:16:05.000   46.089634119  -79.334506063   240.0560   1  27   0.0040   0.0027   0.0071  -0.0012  -0.0012   0.0006  -0.01    3.6
2023/11/15 17:16:06.000   46.089633983  -79.334506010   240.0597   1  27   0.0040   0.0027   0.0071  -0.0012  -0.0012   0.0006  -0.01    3.5
2023/11/15 17:16:07.000   46.089633674  -79.334505358   240.0870   1  27   0.0039   0.0027   0.0069  -0.0010  -0.0014   0.0013  -0.01    4.6
2023/11/15 17:16:08.000   46.089634456  -79.334505653   240.0755   1  27   0.0039   0.0027   0.0069  -0.0010  -0.0014   0.0013  -0.01    4.5
2023/11/15 17:16:09.000   46.089633959  -79.334504887   240.0946   1  27   0.0040   0.0028   0.0072  -0.0010  -0.0013  -0.0005  -0.01    3.3
2023/11/15 17:16:10.000   46.089634299  -79.334506277   240.0686   1  27   0.0042   0.0027   0.0070  -0.0012  -0.0017   0.0021  -0.01    3.5
2023/11/15 17:16:11.000   46.089633046  -79.334505718   240.0677   1  27   0.0040   0.0027   0.0070  -0.0007  -0.0017   0.0008  -0.01    3.5
2023/11/15 17:16:12.000   46.089632528  -79.334505319   240.0675   1  27   0.0039   0.0026   0.0068  -0.0009  -0.0015   0.0015  -0.01    3.4
2023/11/15 17:16:13.000   46.089632330  -79.334505368   240.0702   1  26   0.0041   0.0028   0.0073  -0.0001  -0.0010   0.0015  -0.01    3.4
2023/11/15 17:16:14.000   46.089632830  -79.334505870   240.0605   1  27   0.0040   0.0028   0.0072  -0.0006  -0.0013   0.0011  -0.01    3.4
2023/11/15 17:16:15.000   46.089632927  -79.334505789   240.0594   1  27   0.0040   0.0028   0.0072  -0.0006  -0.0013   0.0011  -0.01    3.4
2023/11/15 17:16:16.000   46.089632867  -79.334505766   240.0558   1  27   0.0040   0.0027   0.0070  -0.0007  -0.0017   0.0008  -0.01    3.2
2023/11/15 17:16:17.000   46.089633191  -79.334505880   240.0539   1  27   0.0040   0.0028   0.0072  -0.0006  -0.0013   0.0011  -0.01    3.3
2023/11/15 17:16:18.000   46.089633227  -79.334506298   240.0497   1  27   0.0042   0.0027   0.0073  -0.0008  -0.0014  -0.0005  -0.01    3.2
2023/11/15 17:16:18.999   46.089633165  -79.334506446   240.0510   1  27   0.0042   0.0027   0.0073  -0.0008  -0.0014  -0.0005  -0.01    3.1
2023/11/15 17:16:20.000   46.089633259  -79.334505818   240.0563   1  27   0.0040   0.0027   0.0071  -0.0009  -0.0016   0.0004  -0.01    6.8
2023/11/15 17:16:21.000   46.089632362  -79.334502852   240.0919   1  27   0.0039   0.0027   0.0069  -0.0008  -0.0014   0.0017  -0.01    4.8
2023/11/15 17:16:22.000   46.089634172  -79.334505881   240.0822   1  27   0.0039   0.0026   0.0068  -0.0009  -0.0015   0.0014  -0.01    3.7
2023/11/15 17:16:23.000   46.089634773  -79.334502913   240.0971   1  27   0.0039   0.0026   0.0068  -0.0009  -0.0015   0.0015  -0.01    4.6
2023/11/15 17:16:24.000   46.089638004  -79.334512123   239.8774   1  27   0.0040   0.0027   0.0070  -0.0007  -0.0017   0.0008  -0.01    4.5
2023/11/15 17:16:25.000   46.089640716  -79.334525949   239.8238   1  23   0.0042   0.0028   0.0077  -0.0010  -0.0003  -0.0011  -0.01    4.7
2023/11/15 17:16:26.000   46.089644167  -79.334538019   239.6236   1  27   0.0039   0.0026   0.0068  -0.0009  -0.0015   0.0015  -0.01    4.3
2023/11/15 17:16:27.000   46.089644043  -79.334547976   239.6343   1  27   0.0042   0.0028   0.0074  -0.0009  -0.0011  -0.0010  -0.01    7.0
2023/11/15 17:16:28.000   46.089642550  -79.334546608   239.6225   1  27   0.0041   0.0027   0.0072  -0.0007  -0.0013   0.0010  -0.01    4.5
2023/11/15 17:16:29.000   46.089642400  -79.334547035   239.6285   1  27   0.0041   0.0028   0.0072  -0.0007  -0.0013   0.0010  -0.01    5.6
2023/11/15 17:16:30.000   46.089642418  -79.334546958   239.6292   1  27   0.0041   0.0028   0.0072  -0.0007  -0.0013   0.0010  -0.01    5.4
2023/11/15 17:16:31.000   46.089643097  -79.334547401   239.6314   1  26   0.0041   0.0027   0.0072  -0.0010  -0.0014  -0.0006  -0.01    4.5
2023/11/15 17:16:32.000   46.089643617  -79.334548347   239.6333   1  27   0.0040   0.0027   0.0071  -0.0005  -0.0016   0.0012  -0.01    3.8
2023/11/15 17:16:33.000   46.089643233  -79.334547837   239.6316   1  26   0.0041   0.0028   0.0074  -0.0004  -0.0010   0.0014  -0.01    5.0
2023/11/15 17:16:34.000   46.089643146  -79.334547945   239.6305   1  27   0.0041   0.0027   0.0072  -0.0007  -0.0013   0.0010  -0.01    3.9
2023/11/15 17:16:35.000   46.089642626  -79.334547707   239.6476   1  27   0.0041   0.0028   0.0072  -0.0007  -0.0013   0.0010  -0.01    4.7
2023/11/15 17:16:36.000   46.089642412  -79.334547562   239.6557   1  27   0.0041   0.0028   0.0072  -0.0007  -0.0013   0.0009  -0.01    6.9
2023/11/15 17:16:37.000   46.089642927  -79.334547538   239.6382   1  26   0.0041   0.0028   0.0074  -0.0004  -0.0010   0.0013  -0.01    3.0
2023/11/15 17:16:38.000   46.089642263  -79.334547740   239.6448   1  27   0.0041   0.0028   0.0072  -0.0007  -0.0013   0.0009  -0.01    6.9
2023/11/15 17:16:39.000   46.089642903  -79.334547736   239.6467   1  27   0.0041   0.0028   0.0072  -0.0007  -0.0013   0.0009  -0.01    6.9
2023/11/15 17:16:40.000   46.089642865  -79.334547616   239.6426   1  27   0.0041   0.0028   0.0072  -0.0007  -0.0013   0.0009  -0.01    3.4
2023/11/15 17:16:41.000   46.089642943  -79.334547629   239.6421   1  27   0.0042   0.0028   0.0074  -0.0010  -0.0010  -0.0010  -0.01    6.9
2023/11/15 17:16:42.000   46.089643224  -79.334547342   239.6365   1  26   0.0041   0.0028   0.0074  -0.0004  -0.0010   0.0013  -0.01    7.0
2023/11/15 17:16:43.000   46.089642997  -79.334547395   239.6469   1  26   0.0041   0.0028   0.0074  -0.0004  -0.0010   0.0013  -0.01    7.0
2023/11/15 17:16:44.000   46.089642556  -79.334547573   239.6440   1  27   0.0041   0.0028   0.0072  -0.0007  -0.0013   0.0008  -0.01    6.9
2023/11/15 17:16:45.000   46.089641280  -79.334549443   239.6169   1  27   0.0042   0.0028   0.0074  -0.0010  -0.0010  -0.0010  -0.01    6.8
2023/11/15 17:16:46.000   46.089637221  -79.334555535   239.5767   1  27   0.0040   0.0027   0.0071  -0.0009  -0.0010   0.0015  -0.01    6.8
2023/11/15 17:16:47.000   46.089635702  -79.334565474   239.4894   1  26   0.0040   0.0028   0.0072  -0.0007  -0.0006   0.0018  -0.01    6.9
2023/11/15 17:16:48.000   46.089634418  -79.334572613   239.4727   1  26   0.0040   0.0028   0.0072  -0.0007  -0.0006   0.0018  -0.01    6.9
2023/11/15 17:16:49.000   46.089634641  -79.334572720   239.4531   1  27   0.0041   0.0028   0.0072  -0.0011  -0.0007   0.0010  -0.01    6.8
2023/11/15 17:16:50.000   46.089635098  -79.334573052   239.4528   1  27   0.0041   0.0028   0.0072  -0.0011  -0.0006   0.0010  -0.01    6.7
2023/11/15 17:16:51.000   46.089634879  -79.334573318   239.4532   1  27   0.0041   0.0028   0.0072  -0.0011  -0.0006   0.0010  -0.01    6.8
2023/11/15 17:16:52.000   46.089635129  -79.334573049   239.4526   1  27   0.0041   0.0028   0.0072  -0.0011  -0.0006   0.0009  -0.01    6.7
2023/11/15 17:16:53.000   46.089634828  -79.334572991   239.4541   1  27   0.0041   0.0028   0.0072  -0.0011  -0.0006   0.0009  -0.01    6.7
2023/11/15 17:16:54.000   46.089634601  -79.334573212   239.4639   1  26   0.0040   0.0028   0.0072  -0.0008  -0.0005   0.0017  -0.01    6.8
2023/11/15 17:16:55.000   46.089634663  -79.334576451   239.4866   1  26   0.0041   0.0028   0.0073  -0.0002  -0.0013   0.0014  -0.01    4.9
2023/11/15 17:16:56.000   46.089632323  -79.334575061   239.4824   1  27   0.0040   0.0027   0.0070  -0.0009  -0.0013   0.0016  -0.01    4.9
2023/11/15 17:16:57.000   46.089632659  -79.334575716   239.4747   1  27   0.0040   0.0027   0.0071  -0.0010  -0.0009   0.0014  -0.01    6.7
2023/11/15 17:16:58.000   46.089632696  -79.334575494   239.4672   1  27   0.0040   0.0027   0.0071  -0.0010  -0.0009   0.0014  -0.01    6.7
2023/11/15 17:16:59.000   46.089632954  -79.334575709   239.4635   1  27   0.0040   0.0027   0.0071  -0.0010  -0.0009   0.0014  -0.01    6.7
2023/11/15 17:17:00.000   46.089632864  -79.334576635   239.4771   1  27   0.0040   0.0027   0.0070  -0.0011  -0.0012   0.0010  -0.01    6.6
2023/11/15 17:17:01.000   46.089626570  -79.334577364   239.4786   1  27   0.0040   0.0027   0.0070  -0.0009  -0.0012   0.0014  -0.01    4.8
2023/11/15 17:17:02.000   46.089619989  -79.334577695   239.3768   1  26   0.0042   0.0028   0.0074  -0.0005  -0.0011   0.0010  -0.01    4.8
2023/11/15 17:17:03.000   46.089615277  -79.334576110   239.4154   1  26   0.0029   0.0019   0.0050  -0.0005  -0.0006   0.0012  -0.01    3.1
2023/11/15 17:17:04.000   46.089609933  -79.334575687   239.4043   1  26   0.0030   0.0019   0.0051  -0.0006  -0.0009  -0.0002  -0.01    3.5
2023/11/15 17:17:05.000   46.089602358  -79.334576514   239.4454   1  26   0.0030   0.0020   0.0053  -0.0005  -0.0006  -0.0002  -0.01    4.0
2023/11/15 17:17:06.000   46.089594765  -79.334574215   239.3764   1  26   0.0030   0.0020   0.0053  -0.0005  -0.0006  -0.0003  -0.01    3.9
2023/11/15 17:17:07.000   46.089588049  -79.334573396   239.3848   1  26   0.0031   0.0021   0.0057  -0.0009   0.0012  -0.0013  -0.01    4.2
2023/11/15 17:17:08.000   46.089584603  -79.334582505   239.3213   1  24   0.0031   0.0022   0.0057  -0.0011   0.0015  -0.0011  -0.01    4.5
2023/11/15 17:17:09.000   46.089583464  -79.334591473   239.2993   1  22   0.0034   0.0025   0.0068  -0.0017   0.0025  -0.0027  -0.01    5.0
2023/11/15 17:17:10.000   46.089582898  -79.334593332   239.3119   1  27   0.0030   0.0019   0.0053  -0.0007  -0.0007  -0.0009  -0.01    4.6
2023/11/15 17:17:11.000   46.089578029  -79.334593531   239.2775   1  27   0.0030   0.0020   0.0053  -0.0007  -0.0007  -0.0009  -0.01    5.1
2023/11/15 17:17:12.000   46.089570775  -79.334597987   239.2573   1  27   0.0031   0.0019   0.0053  -0.0009  -0.0008  -0.0013  -0.01    5.2
2023/11/15 17:17:13.000   46.089562012  -79.334599588   239.1771   1  27   0.0030   0.0019   0.0052  -0.0008  -0.0009  -0.0011  -0.01    5.5
2023/11/15 17:17:14.000   46.089552379  -79.334604121   239.2411   1  27   0.0030   0.0019   0.0052  -0.0007  -0.0008  -0.0008  -0.01    6.5
2023/11/15 17:17:15.000   46.089544074  -79.334608848   239.2261   1  27   0.0029   0.0019   0.0051  -0.0007  -0.0011  -0.0006  -0.01    6.2
2023/11/15 17:17:16.000   46.089535187  -79.334610940   239.1594   1  26   0.0029   0.0019   0.0052  -0.0007  -0.0009  -0.0006  -0.01    6.7
2023/11/15 17:17:17.000   46.089526239  -79.334610619   239.2522   1  27   0.0029   0.0019   0.0051  -0.0007  -0.0011  -0.0006  -0.01    6.8
2023/11/15 17:17:18.000   46.089516611  -79.334609320   239.2973   1  27   0.0028   0.0019   0.0050  -0.0007  -0.0008   0.0009  -0.01    7.7
2023/11/15 17:17:19.000   46.089509657  -79.334605725   239.2434   1  27   0.0028   0.0019   0.0049  -0.0008  -0.0009   0.0007  -0.01    6.9
2023/11/15 17:17:20.000   46.089507818  -79.334603816   239.2764   1  27   0.0028   0.0019   0.0049  -0.0008  -0.0009   0.0007  -0.01    6.9
2023/11/15 17:17:21.000   46.089507516  -79.334604233   239.2761   1  27   0.0028   0.0019   0.0049  -0.0008  -0.0009   0.0007  -0.01    6.9
2023/11/15 17:17:22.000   46.089507133  -79.334603960   239.2877   1  27   0.0028   0.0019   0.0050  -0.0007  -0.0008   0.0010  -0.01    7.9
2023/11/15 17:17:23.000   46.089504353  -79.334604401   239.2662   1  27   0.0029   0.0019   0.0051  -0.0006  -0.0011  -0.0005  -0.01    7.1
2023/11/15 17:17:24.000   46.089497613  -79.334601306   239.1949   1  26   0.0028   0.0019   0.0050  -0.0007  -0.0008   0.0010  -0.01    7.0
2023/11/15 17:17:25.000   46.089489801  -79.334599065   239.2296   1  27   0.0029   0.0019   0.0051  -0.0006  -0.0011  -0.0005  -0.01    7.0
2023/11/15 17:17:26.000   46.089481857  -79.334599296   239.2317   1  27   0.0029   0.0019   0.0051  -0.0006  -0.0011  -0.0005  -0.01    7.0
2023/11/15 17:17:27.000   46.089472904  -79.334595919   239.1290   1  26   0.0029   0.0019   0.0051  -0.0005  -0.0009   0.0004  -0.01    7.1
2023/11/15 17:17:28.000   46.089464662  -79.334594088   239.0720   1  27   0.0029   0.0019   0.0051  -0.0006  -0.0011  -0.0005  -0.01    7.1
2023/11/15 17:17:29.000   46.089456153  -79.334594869   238.9859   1  27   0.0028   0.0019   0.0050  -0.0007  -0.0008   0.0010  -0.01    8.1
2023/11/15 17:17:30.000   46.089448253  -79.334592854   238.8566   1  26   0.0030   0.0020   0.0052  -0.0003  -0.0008   0.0007  -0.01    8.2
2023/11/15 17:17:31.000   46.089440160  -79.334589521   238.8355   1  26   0.0030   0.0020   0.0052  -0.0003  -0.0008   0.0007  -0.01    8.1
2023/11/15 17:17:32.000   46.089432309  -79.334590828   238.7655   1  27   0.0028   0.0019   0.0049  -0.0007  -0.0009   0.0008  -0.01    7.1
2023/11/15 17:17:33.000   46.089424627  -79.334592014   238.6941   1  26   0.0029   0.0019   0.0050  -0.0006  -0.0007   0.0011  -0.01    7.1
2023/11/15 17:17:34.000   46.089418593  -79.334588187   238.6477   1  27   0.0028   0.0019   0.0050  -0.0007  -0.0008   0.0010  -0.01    8.1
2023/11/15 17:17:35.000   46.089411072  -79.334584999   238.5987   1  27   0.0028   0.0019   0.0049  -0.0007  -0.0008   0.0010  -0.01    8.1
2023/11/15 17:17:36.000   46.089404772  -79.334577704   238.4916   1  27   0.0028   0.0019   0.0049  -0.0007  -0.0008   0.0010  -0.01    8.1
2023/11/15 17:17:37.000   46.089398750  -79.334569874   238.4948   1  27   0.0029   0.0019   0.0051  -0.0005  -0.0010   0.0005  -0.01    8.1
2023/11/15 17:17:38.000   46.089393862  -79.334567483   238.4254   1  27   0.0029   0.0019   0.0051  -0.0005  -0.0010   0.0005  -0.01    8.1
2023/11/15 17:17:39.000   46.089389028  -79.334566181   238.4018   1  27   0.0028   0.0019   0.0049  -0.0007  -0.0008   0.0010  -0.01    8.1
2023/11/15 17:17:40.000   46.089384625  -79.334563154   238.3996   1  27   0.0029   0.0020   0.0052  -0.0006  -0.0008  -0.0003  -0.01    8.4
2023/11/15 17:17:41.000   46.089384519  -79.334563977   238.4051   1  27   0.0029   0.0020   0.0052  -0.0006  -0.0008  -0.0003  -0.01    8.4
2023/11/15 17:17:42.000   46.089384331  -79.334563598   238.3384   1  27   0.0028   0.0019   0.0049  -0.0007  -0.0008   0.0010  -0.01    8.0
2023/11/15 17:17:43.000   46.089379208  -79.334560922   238.3758   1  27   0.0028   0.0019   0.0049  -0.0007  -0.0008   0.0010  -0.01    8.0
2023/11/15 17:17:44.000   46.089380328  -79.334562253   238.3596   1  27   0.0028   0.0019   0.0049  -0.0007  -0.0008   0.0010  -0.01    7.9
2023/11/15 17:17:45.000   46.089378914  -79.334568399   238.3490   1  27   0.0028   0.0019   0.0049  -0.0007  -0.0008   0.0010  -0.01    7.9
2023/11/15 17:17:46.000   46.089376479  -79.334569187   238.3607   1  27   0.0028   0.0019   0.0049  -0.0007  -0.0008   0.0010  -0.01    7.8
2023/11/15 17:17:47.000   46.089376385  -79.334568480   238.3335   1  27   0.0028   0.0019   0.0049  -0.0007  -0.0008   0.0010  -0.01    7.8
2023/11/15 17:17:48.000   46.089375739  -79.334568345   238.3515   1  27   0.0028   0.0019   0.0049  -0.0007  -0.0008   0.0010  -0.01    7.7
2023/11/15 17:17:49.000   46.089371151  -79.334565234   238.2990   1  27   0.0028   0.0019   0.0049  -0.0007  -0.0008   0.0010  -0.01    7.7
2023/11/15 17:17:50.000   46.089367584  -79.334559735   238.2698   1  27   0.0029   0.0019   0.0051  -0.0005  -0.0010   0.0005  -0.01    7.6
2023/11/15 17:17:51.000   46.089366649  -79.334559162   238.2569   1  27   0.0028   0.0019   0.0049  -0.0007  -0.0008   0.0010  -0.01    7.6
2023/11/15 17:17:52.000   46.089365045  -79.334558797   238.2368   1  27   0.0028   0.0019   0.0049  -0.0007  -0.0008   0.0010  -0.01    7.6
2023/11/15 17:17:53.000   46.089361873  -79.334553429   238.2477   1  27   0.0028   0.0019   0.0049  -0.0007  -0.0008   0.0010  -0.01    7.6
2023/11/15 17:17:54.000   46.089361436  -79.334551734   238.2411   1  27   0.0028   0.0019   0.0049  -0.0007  -0.0008   0.0010  -0.01    7.6
2023/11/15 17:17:55.000   46.089360929  -79.334551354   238.2426   1  27   0.0028   0.0019   0.0049  -0.0007  -0.0008   0.0010  -0.01    7.5
2023/11/15 17:17:56.000   46.089355778  -79.334552778   238.2382   1  27   0.0029   0.0019   0.0051  -0.0005  -0.0010   0.0005  -0.01    7.6
2023/11/15 17:17:57.000   46.089352272  -79.334550581   238.2117   1  27   0.0029   0.0019   0.0051  -0.0005  -0.0010   0.0005  -0.01    7.6
2023/11/15 17:17:58.000   46.089351065  -79.334549899   238.2138   1  27   0.0028   0.0019   0.0049  -0.0006  -0.0008   0.0010  -0.01    7.5
2023/11/15 17:17:59.000   46.089345413  -79.334553243   238.1833   1  27   0.0029   0.0019   0.0051  -0.0005  -0.0010   0.0005  -0.01    7.6
2023/11/15 17:18:00.000   46.089340590  -79.334554803   238.1538   1  27   0.0029   0.0019   0.0051  -0.0005  -0.0010   0.0005  -0.01    7.7
2023/11/15 17:18:01.000   46.089339394  -79.334554274   238.1494   1  27   0.0028   0.0019   0.0049  -0.0006  -0.0008   0.0010  -0.01    7.6
2023/11/15 17:18:02.000   46.089339291  -79.334554198   238.1612   1  27   0.0028   0.0019   0.0049  -0.0006  -0.0008   0.0010  -0.01    7.6
2023/11/15 17:18:03.000   46.089335487  -79.334553523   238.1709   1  27   0.0028   0.0019   0.0049  -0.0006  -0.0008   0.0010  -0.01    7.6
2023/11/15 17:18:04.000   46.089330891  -79.334551177   238.1784   1  27   0.0029   0.0019   0.0051  -0.0005  -0.0010   0.0005  -0.01    7.7
2023/11/15 17:18:05.000   46.089329832  -79.334550977   238.1715   1  27   0.0028   0.0019   0.0049  -0.0006  -0.0008   0.0010  -0.01    7.6
2023/11/15 17:18:06.000   46.089327701  -79.334551131   238.1427   1  27   0.0028   0.0019   0.0049  -0.0006  -0.0008   0.0010  -0.01    7.6
2023/11/15 17:18:07.000   46.089323663  -79.334551893   238.1401   1  27   0.0028   0.0019   0.0049  -0.0006  -0.0008   0.0010  -0.01    7.5
2023/11/15 17:18:08.000   46.089322828  -79.334551958   238.1432   1  27   0.0028   0.0019   0.0049  -0.0006  -0.0008   0.0010  -0.01    7.5
2023/11/15 17:18:09.000   46.089321372  -79.334552991   238.1504   1  27   0.0028   0.0019   0.0049  -0.0006  -0.0008   0.0010  -0.01    7.5
2023/11/15 17:18:10.000   46.089316589  -79.334548226   238.1046   1  27   0.0029   0.0019   0.0051  -0.0005  -0.0010   0.0005  -0.01    7.5
2023/11/15 17:18:11.000   46.089312163  -79.334549820   238.0961   1  27   0.0028   0.0019   0.0049  -0.0006  -0.0008   0.0010  -0.01    7.4
2023/11/15 17:18:12.000   46.089310851  -79.334548101   238.0992   1  27   0.0028   0.0019   0.0049  -0.0006  -0.0008   0.0010  -0.01    7.4
2023/11/15 17:18:13.000   46.089306207  -79.334550544   238.0842   1  27   0.0029   0.0019   0.0051  -0.0005  -0.0010   0.0005  -0.01    7.5
2023/11/15 17:18:14.000   46.089302439  -79.334551593   238.0532   1  27   0.0029   0.0019   0.0049  -0.0006  -0.0008   0.0010  -0.01    7.4
2023/11/15 17:18:15.000   46.089302058  -79.334551898   238.0482   1  28   0.0029   0.0019   0.0049  -0.0007  -0.0008   0.0009  -0.01    7.4
2023/11/15 17:18:16.000   46.089302305  -79.334551205   238.0541   1  28   0.0028   0.0019   0.0049  -0.0005  -0.0009   0.0011  -0.01    7.4
2023/11/15 17:18:17.000   46.089302388  -79.334551060   238.0454   1  28   0.0028   0.0019   0.0049  -0.0005  -0.0010   0.0011  -0.01    7.3
2023/11/15 17:18:18.000   46.089299075  -79.334554563   238.0791   1  27   0.0029   0.0019   0.0050  -0.0006  -0.0009   0.0008  -0.01    7.3
2023/11/15 17:18:19.000   46.089296439  -79.334553283   238.0260   1  28   0.0029   0.0019   0.0050  -0.0004  -0.0011   0.0008  -0.01    7.4
2023/11/15 17:18:20.000   46.089295901  -79.334554200   238.0290   1  27   0.0029   0.0019   0.0051  -0.0004  -0.0010   0.0002  -0.01    7.4
2023/11/15 17:18:21.000   46.089292646  -79.334558450   238.0206   1  27   0.0030   0.0019   0.0051  -0.0004  -0.0010  -0.0004  -0.01    7.4
2023/11/15 17:18:22.000   46.089286841  -79.334564124   238.0461   1  28   0.0029   0.0019   0.0049  -0.0004  -0.0011   0.0009  -0.01    7.4
2023/11/15 17:18:23.000   46.089282530  -79.334570573   238.0083   1  28   0.0029   0.0019   0.0050  -0.0004  -0.0011   0.0009  -0.01    7.4
2023/11/15 17:18:24.000   46.089281500  -79.334570074   238.0003   1  28   0.0029   0.0019   0.0049  -0.0004  -0.0011   0.0009  -0.01    7.4
2023/11/15 17:18:25.000   46.089276342  -79.334571305   238.0063   1  28   0.0029   0.0019   0.0049  -0.0004  -0.0011   0.0010  -0.01    7.4
2023/11/15 17:18:26.000   46.089275910  -79.334568542   237.9928   1  28   0.0029   0.0019   0.0049  -0.0005  -0.0010   0.0010  -0.01    7.3
2023/11/15 17:18:27.000   46.089275052  -79.334568123   237.9833   1  28   0.0029   0.0019   0.0049  -0.0005  -0.0010   0.0010  -0.01    7.3
2023/11/15 17:18:28.000   46.089268838  -79.334571593   237.9967   1  28   0.0028   0.0019   0.0049  -0.0005  -0.0010   0.0011  -0.01    7.3
2023/11/15 17:18:29.000   46.089266688  -79.334567925   237.9650   1  28   0.0028   0.0019   0.0049  -0.0005  -0.0010   0.0011  -0.01    7.3
2023/11/15 17:18:30.000   46.089266183  -79.334569827   237.9491   1  28   0.0028   0.0019   0.0049  -0.0005  -0.0010   0.0011  -0.01    7.3
2023/11/15 17:18:31.000   46.089262780  -79.334569438   237.9357   1  28   0.0028   0.0019   0.0049  -0.0005  -0.0010   0.0011  -0.01    7.3
2023/11/15 17:18:32.000   46.089258100  -79.334562748   237.9993   1  28   0.0028   0.0019   0.0049  -0.0005  -0.0010   0.0011  -0.01    7.3
2023/11/15 17:18:33.000   46.089255918  -79.334561593   238.0039   1  28   0.0028   0.0019   0.0048  -0.0005  -0.0010   0.0012  -0.01    7.2
2023/11/15 17:18:34.000   46.089255970  -79.334560056   238.0035   1  28   0.0028   0.0019   0.0048  -0.0005  -0.0010   0.0012  -0.01    7.2
2023/11/15 17:18:35.000   46.089250852  -79.334557574   238.0562   1  28   0.0028   0.0019   0.0048  -0.0005  -0.0010   0.0012  -0.01    7.2
2023/11/15 17:18:36.000   46.089249423  -79.334553998   238.0436   1  28   0.0028   0.0019   0.0048  -0.0005  -0.0010   0.0012  -0.01    7.2
2023/11/15 17:18:37.000   46.089248485  -79.334554151   238.0638   1  28   0.0028   0.0019   0.0048  -0.0005  -0.0010   0.0012  -0.01    7.2
2023/11/15 17:18:38.000   46.089242827  -79.334555444   238.0899   1  28   0.0028   0.0019   0.0048  -0.0005  -0.0010   0.0013  -0.01    3.6
2023/11/15 17:18:39.000   46.089239705  -79.334550266   238.1071   1  28   0.0028   0.0019   0.0048  -0.0005  -0.0010   0.0013  -0.01    7.2
2023/11/15 17:18:40.000   46.089237597  -79.334550100   238.1066   1  28   0.0028   0.0019   0.0048  -0.0005  -0.0010   0.0013  -0.01    7.2
2023/11/15 17:18:41.000   46.089230716  -79.334550714   238.0772   1  28   0.0028   0.0019   0.0048  -0.0005  -0.0010   0.0013  -0.01    7.2
2023/11/15 17:18:42.000   46.089225648  -79.334550484   238.1199   1  28   0.0028   0.0019   0.0048  -0.0005  -0.0010   0.0013  -0.01    7.2
2023/11/15 17:18:43.000   46.089225860  -79.334549489   238.1161   1  28   0.0028   0.0019   0.0048  -0.0005  -0.0010   0.0013  -0.01    7.2
2023/11/15 17:18:44.000   46.089223760  -79.334548011   238.1161   1  28   0.0028   0.0019   0.0048  -0.0005  -0.0010   0.0013  -0.01    5.4
2023/11/15 17:18:45.000   46.089216773  -79.334544459   238.0926   1  28   0.0028   0.0019   0.0048  -0.0005  -0.0010   0.0013  -0.01    7.3
2023/11/15 17:18:46.000   46.089213224  -79.334542044   238.1501   1  28   0.0028   0.0019   0.0048  -0.0005  -0.0010   0.0013  -0.01    7.3
2023/11/15 17:18:47.000   46.089207831  -79.334539973   238.2123   1  28   0.0028   0.0019   0.0048  -0.0004  -0.0010   0.0013  -0.01    4.0
2023/11/15 17:18:48.000   46.089202969  -79.334534524   238.2780   1  28   0.0028   0.0019   0.0048  -0.0005  -0.0010   0.0013  -0.01    7.3
2023/11/15 17:18:49.000   46.089201166  -79.334535436   238.2659   1  28   0.0028   0.0019   0.0048  -0.0005  -0.0010   0.0013  -0.01    6.4
2023/11/15 17:18:50.000   46.089195007  -79.334530273   238.2783   1  28   0.0028   0.0019   0.0048  -0.0005  -0.0010   0.0013  -0.01    6.6
2023/11/15 17:18:51.000   46.089188686  -79.334529105   238.2801   1  28   0.0028   0.0019   0.0048  -0.0005  -0.0010   0.0013  -0.01    6.9
2023/11/15 17:18:52.000   46.089188158  -79.334527846   238.2745   1  28   0.0028   0.0019   0.0047  -0.0005  -0.0010   0.0014  -0.01    5.3
2023/11/15 17:18:53.000   46.089184065  -79.334527600   238.2978   1  28   0.0028   0.0019   0.0047  -0.0005  -0.0010   0.0014  -0.01    5.5
2023/11/15 17:18:54.000   46.089182654  -79.334526318   238.3174   1  28   0.0028   0.0019   0.0047  -0.0005  -0.0010   0.0014  -0.01    3.1
2023/11/15 17:18:55.000   46.089182474  -79.334525766   238.3194   1  28   0.0028   0.0019   0.0047  -0.0005  -0.0010   0.0014  -0.01    5.9
2023/11/15 17:18:56.000   46.089177224  -79.334522599   238.3394   1  28   0.0028   0.0019   0.0047  -0.0005  -0.0010   0.0014  -0.01    5.3
2023/11/15 17:18:57.000   46.089172281  -79.334515181   238.3509   1  28   0.0028   0.0019   0.0047  -0.0005  -0.0010   0.0014  -0.01    3.3
2023/11/15 17:18:58.000   46.089165933  -79.334514480   238.3429   1  28   0.0028   0.0019   0.0047  -0.0005  -0.0010   0.0014  -0.01    3.4
2023/11/15 17:18:59.000   46.089158463  -79.334507907   238.3295   1  28   0.0028   0.0019   0.0047  -0.0005  -0.0010   0.0014  -0.01    3.4
2023/11/15 17:19:00.000   46.089153417  -79.334505529   238.3292   1  28   0.0028   0.0019   0.0047  -0.0005  -0.0010   0.0014  -0.01    3.5
2023/11/15 17:19:01.000   46.089149958  -79.334502785   238.3053   1  28   0.0028   0.0019   0.0047  -0.0005  -0.0010   0.0014  -0.01    3.5
2023/11/15 17:19:02.000   46.089141616  -79.334498174   238.2293   1  28   0.0028   0.0019   0.0047  -0.0005  -0.0010   0.0014  -0.01    3.6
2023/11/15 17:19:03.000   46.089135224  -79.334497736   238.2447   1  28   0.0028   0.0019   0.0047  -0.0005  -0.0010   0.0014  -0.01    3.7
2023/11/15 17:19:04.000   46.089133245  -79.334496246   238.2376   1  28   0.0028   0.0019   0.0047  -0.0005  -0.0010   0.0014  -0.01    3.7
2023/11/15 17:19:05.000   46.089125040  -79.334494377   238.2229   1  28   0.0028   0.0019   0.0047  -0.0004  -0.0010   0.0014  -0.01    3.7
2023/11/15 17:19:06.000   46.089118103  -79.334493059   238.1354   1  27   0.0028   0.0019   0.0048  -0.0002  -0.0009   0.0015  -0.01    3.8
2023/11/15 17:19:07.000   46.089115898  -79.334492842   238.1657   1  28   0.0028   0.0019   0.0047  -0.0004  -0.0010   0.0014  -0.01    3.8
2023/11/15 17:19:08.000   46.089109852  -79.334490991   238.1216   1  28   0.0028   0.0019   0.0048  -0.0002  -0.0011   0.0011  -0.01    3.9
2023/11/15 17:19:09.000   46.089101465  -79.334488232   238.1272   1  28   0.0028   0.0019   0.0048  -0.0002  -0.0011   0.0011  -0.01    3.9
2023/11/15 17:19:10.000   46.089095419  -79.334489042   238.0757   1  28   0.0028   0.0019   0.0048  -0.0002  -0.0011   0.0011  -0.01    4.0
2023/11/15 17:19:11.000   46.089089728  -79.334487650   238.0312   1  28   0.0028   0.0019   0.0047  -0.0004  -0.0010   0.0014  -0.01    3.0
2023/11/15 17:19:12.000   46.089081009  -79.334485364   238.0493   1  28   0.0028   0.0019   0.0048  -0.0002  -0.0011   0.0011  -0.01    3.0
2023/11/15 17:19:13.000   46.089076253  -79.334487558   238.0296   1  28   0.0028   0.0019   0.0048  -0.0002  -0.0011   0.0011  -0.01    3.0
2023/11/15 17:19:14.000   46.089072327  -79.334485800   238.0013   1  28   0.0028   0.0019   0.0048  -0.0002  -0.0011   0.0011  -0.01    3.0
2023/11/15 17:19:15.000   46.089062626  -79.334485229   237.9836   1  28   0.0028   0.0019   0.0048  -0.0002  -0.0011   0.0011  -0.01    3.1
2023/11/15 17:19:16.000   46.089055247  -79.334490253   237.9885   1  28   0.0028   0.0019   0.0048  -0.0002  -0.0011   0.0011  -0.01    3.1
2023/11/15 17:19:17.000   46.089053586  -79.334490833   237.9573   1  28   0.0028   0.0019   0.0048  -0.0002  -0.0011   0.0011  -0.01    3.1
2023/11/15 17:19:18.000   46.089049317  -79.334486324   237.9675   1  28   0.0028   0.0019   0.0048  -0.0002  -0.0011   0.0011  -0.01    3.1
2023/11/15 17:19:19.000   46.089045437  -79.334486955   237.9514   1  28   0.0028   0.0019   0.0048  -0.0002  -0.0011   0.0011  -0.01    3.1
2023/11/15 17:19:20.000   46.089043607  -79.334486348   237.9323   1  28   0.0028   0.0019   0.0048  -0.0002  -0.0011   0.0011  -0.01    3.1
2023/11/15 17:19:21.000   46.089035090  -79.334484337   237.9493   1  28   0.0028   0.0019   0.0048  -0.0002  -0.0011   0.0011  -0.01    3.1
2023/11/15 17:19:22.000   46.089027511  -79.334482308   237.9370   1  28   0.0028   0.0019   0.0048  -0.0002  -0.0011   0.0011  -0.01    3.1
2023/11/15 17:19:23.000   46.089024984  -79.334482146   237.9734   1  28   0.0028   0.0019   0.0048  -0.0002  -0.0011   0.0011  -0.01    3.1
2023/11/15 17:19:24.000   46.089024562  -79.334482207   237.9694   1  28   0.0028   0.0019   0.0048  -0.0002  -0.0011   0.0011  -0.01    3.1
2023/11/15 17:19:25.000   46.089023941  -79.334482714   237.9927   1  28   0.0028   0.0019   0.0048  -0.0002  -0.0011   0.0011  -0.01    3.1
2023/11/15 17:19:26.000   46.089023341  -79.334483566   237.9987   1  28   0.0028   0.0019   0.0048  -0.0002  -0.0011   0.0011  -0.01    3.1
2023/11/15 17:19:27.000   46.089024281  -79.334482906   237.9803   1  28   0.0028   0.0019   0.0048  -0.0002  -0.0011   0.0011  -0.01    3.1
2023/11/15 17:19:28.000   46.089024678  -79.334482226   237.9797   1  28   0.0028   0.0019   0.0048  -0.0002  -0.0011   0.0011  -0.01    3.1
2023/11/15 17:19:29.000   46.089024487  -79.334482504   237.9809   1  28   0.0028   0.0019   0.0048  -0.0002  -0.0011   0.0011  -0.01    3.1
2023/11/15 17:19:30.000   46.089024536  -79.334482516   237.9787   1  28   0.0028   0.0019   0.0048  -0.0002  -0.0011   0.0011  -0.01    3.1
2023/11/15 17:19:31.000   46.089024410  -79.334482739   237.9767   1  28   0.0028   0.0019   0.0048  -0.0002  -0.0011   0.0011  -0.01    3.1
2023/11/15 17:19:32.000   46.089022497  -79.334482979   237.9651   1  28   0.0028   0.0019   0.0048  -0.0002  -0.0011   0.0011  -0.01    3.1
2023/11/15 17:19:33.000   46.089016552  -79.334474632   237.9351   1  28   0.0028   0.0019   0.0048  -0.0002  -0.0011   0.0011  -0.01    3.1
2023/11/15 17:19:34.000   46.089010802  -79.334466694   237.9729   1  28   0.0028   0.0019   0.0048  -0.0002  -0.0011   0.0011  -0.01    3.1
2023/11/15 17:19:35.000   46.089007572  -79.334465344   237.9723   1  28   0.0028   0.0019   0.0048  -0.0002  -0.0011   0.0011  -0.01    3.1
2023/11/15 17:19:36.000   46.089006988  -79.334462471   237.9664   1  28   0.0028   0.0019   0.0048  -0.0002  -0.0011   0.0011  -0.01    3.1
2023/11/15 17:19:37.000   46.089002386  -79.334457769   237.9778   1  28   0.0028   0.0019   0.0048  -0.0002  -0.0011   0.0011  -0.01    3.1
2023/11/15 17:19:38.000   46.089003614  -79.334455224   237.9716   1  28   0.0028   0.0019   0.0048  -0.0002  -0.0011   0.0011  -0.01    3.2
2023/11/15 17:19:39.000   46.089000101  -79.334448601   238.0451   1  28   0.0028   0.0019   0.0048  -0.0002  -0.0011   0.0011  -0.01    3.1
2023/11/15 17:19:40.000   46.088997875  -79.334438991   238.0173   1  28   0.0028   0.0019   0.0048  -0.0002  -0.0011   0.0011  -0.01    3.2
2023/11/15 17:19:41.000   46.088994295  -79.334434814   238.0201   1  28   0.0028   0.0019   0.0048  -0.0002  -0.0011   0.0011  -0.01    3.2
2023/11/15 17:19:42.000   46.088993817  -79.334433621   238.0044   1  28   0.0028   0.0019   0.0048  -0.0002  -0.0011   0.0011  -0.01    3.2
2023/11/15 17:19:43.000   46.088988666  -79.334428193   238.0372   1  28   0.0029   0.0019   0.0049  -0.0004  -0.0010   0.0008  -0.01    3.2
2023/11/15 17:19:44.000   46.088987270  -79.334424079   238.0574   1  28   0.0029   0.0019   0.0049  -0.0004  -0.0010   0.0008  -0.01    3.2
2023/11/15 17:19:45.000   46.088987412  -79.334423971   238.0356   1  28   0.0028   0.0019   0.0048  -0.0002  -0.0011   0.0011  -0.01    3.2
2023/11/15 17:19:46.000   46.088987418  -79.334422525   238.0511   1  28   0.0028   0.0019   0.0048  -0.0002  -0.0011   0.0011  -0.01    3.2
2023/11/15 17:19:47.000   46.088983808  -79.334418547   238.0637   1  28   0.0028   0.0019   0.0048  -0.0006  -0.0009   0.0012  -0.01    3.2
2023/11/15 17:19:48.000   46.088979964  -79.334412848   238.1146   1  28   0.0028   0.0019   0.0047  -0.0004  -0.0010   0.0014  -0.01    3.2
2023/11/15 17:19:49.000   46.088978380  -79.334413620   238.1514   1  28   0.0028   0.0019   0.0047  -0.0004  -0.0010   0.0014  -0.01    3.2
2023/11/15 17:19:50.000   46.088977864  -79.334412394   238.1618   1  28   0.0028   0.0019   0.0047  -0.0004  -0.0010   0.0014  -0.01    3.2
2023/11/15 17:19:51.000   46.088975253  -79.334410484   238.1142   1  28   0.0028   0.0019   0.0047  -0.0004  -0.0010   0.0014  -0.01    3.2
2023/11/15 17:19:52.000   46.088971270  -79.334407503   238.0922   1  28   0.0028   0.0019   0.0048  -0.0002  -0.0011   0.0011  -0.01    3.2
2023/11/15 17:19:53.000   46.088967562  -79.334406699   238.1014   1  28   0.0028   0.0019   0.0048  -0.0002  -0.0011   0.0011  -0.01    3.2
2023/11/15 17:19:54.000   46.088967033  -79.334406453   238.1031   1  28   0.0028   0.0019   0.0047  -0.0004  -0.0010   0.0014  -0.01    3.2
2023/11/15 17:19:55.000   46.088967739  -79.334407385   238.0865   1  28   0.0028   0.0019   0.0048  -0.0002  -0.0011   0.0011  -0.01    3.2
2023/11/15 17:19:56.000   46.088967176  -79.334408511   238.0643   1  28   0.0028   0.0019   0.0047  -0.0004  -0.0010   0.0014  -0.01    3.2
2023/11/15 17:19:57.000   46.088967689  -79.334408002   238.0729   1  28   0.0028   0.0019   0.0047  -0.0004  -0.0010   0.0014  -0.01    3.2
2023/11/15 17:19:58.000   46.088967943  -79.334407725   238.0775   1  28   0.0028   0.0019   0.0047  -0.0004  -0.0010   0.0014  -0.01    3.2
2023/11/15 17:19:59.000   46.088968100  -79.334406571   238.0958   1  28   0.0028   0.0019   0.0047  -0.0004  -0.0010   0.0014  -0.01    3.2
2023/11/15 17:20:00.000   46.088968168  -79.334406360   238.0979   1  28   0.0028   0.0019   0.0047  -0.0004  -0.0010   0.0014  -0.01    3.2
2023/11/15 17:20:01.000   46.088968123  -79.334407189   238.0885   1  28   0.0028   0.0019   0.0047  -0.0004  -0.0010   0.0014  -0.01    3.2
2023/11/15 17:20:02.000   46.088968161  -79.334407724   238.0645   1  28   0.0028   0.0019   0.0047  -0.0004  -0.0010   0.0014  -0.01    3.2
2023/11/15 17:20:03.000   46.088968335  -79.334408108   238.0501   1  28   0.0028   0.0019   0.0047  -0.0004  -0.0010   0.0014  -0.01    3.2
2023/11/15 17:20:04.000   46.088968168  -79.334407916   238.0571   1  28   0.0028   0.0019   0.0047  -0.0004  -0.0010   0.0014  -0.01    3.2
2023/11/15 17:20:05.000   46.088968042  -79.334408058   238.0587   1  28   0.0028   0.0019   0.0047  -0.0004  -0.0010   0.0014  -0.01    3.2
2023/11/15 17:20:06.000   46.088968147  -79.334408360   238.0513   1  28   0.0028   0.0019   0.0047  -0.0004  -0.0010   0.0014  -0.01    3.2
2023/11/15 17:20:07.000   46.088967902  -79.334408388   238.0586   1  28   0.0028   0.0019   0.0048  -0.0002  -0.0011   0.0011  -0.01    3.2
2023/11/15 17:20:08.000   46.088967806  -79.334408373   238.0574   1  28   0.0028   0.0019   0.0048  -0.0002  -0.0011   0.0011  -0.01    3.2
2023/11/15 17:20:09.000   46.088967676  -79.334408318   238.0600   1  28   0.0028   0.0019   0.0048  -0.0002  -0.0011   0.0011  -0.01    3.2
2023/11/15 17:20:10.000   46.088967713  -79.334408156   238.0634   1  28   0.0028   0.0019   0.0048  -0.0002  -0.0011   0.0011  -0.01    3.2
2023/11/15 17:20:11.000   46.088967638  -79.334407434   238.0845   1  28   0.0028   0.0019   0.0047  -0.0004  -0.0010   0.0014  -0.01    3.2
2023/11/15 17:20:12.000   46.088967336  -79.334407761   238.0864   1  28   0.0028   0.0019   0.0048  -0.0002  -0.0011   0.0011  -0.01    3.2
2023/11/15 17:20:13.000   46.088967094  -79.334408198   238.0808   1  28   0.0028   0.0019   0.0048  -0.0002  -0.0011   0.0011  -0.01    3.2
2023/11/15 17:20:14.000   46.088967029  -79.334408259   238.0804   1  28   0.0028   0.0019   0.0048  -0.0002  -0.0011   0.0011  -0.01    3.2
2023/11/15 17:20:15.000   46.088966949  -79.334408252   238.0785   1  28   0.0028   0.0019   0.0048  -0.0002  -0.0011   0.0011  -0.01    3.2
2023/11/15 17:20:16.000   46.088967279  -79.334408052   238.0722   1  28   0.0028   0.0019   0.0048  -0.0002  -0.0011   0.0011  -0.01    3.2
2023/11/15 17:20:17.000   46.088967489  -79.334408138   238.0675   1  28   0.0028   0.0019   0.0048  -0.0002  -0.0011   0.0011  -0.01    3.2
2023/11/15 17:20:18.000   46.088967459  -79.334408060   238.0674   1  28   0.0028   0.0019   0.0048  -0.0002  -0.0011   0.0011  -0.01    3.2
2023/11/15 17:20:19.000   46.088967510  -79.334408034   238.0692   1  28   0.0028   0.0019   0.0048  -0.0002  -0.0011   0.0011  -0.01    3.2
2023/11/15 17:20:20.000   46.088967624  -79.334407532   238.0810   1  28   0.0028   0.0019   0.0048  -0.0002  -0.0011   0.0011  -0.01    3.2
2023/11/15 17:20:21.000   46.088967630  -79.334407380   238.0776   1  28   0.0028   0.0019   0.0048  -0.0002  -0.0011   0.0011  -0.01    3.2
2023/11/15 17:20:22.000   46.088967639  -79.334407634   238.0768   1  28   0.0028   0.0019   0.0048  -0.0002  -0.0011   0.0011  -0.01    3.2
2023/11/15 17:20:23.000   46.088967652  -79.334407765   238.0757   1  28   0.0028   0.0019   0.0048  -0.0002  -0.0011   0.0011  -0.01    3.2
2023/11/15 17:20:24.000   46.088967722  -79.334407688   238.0737   1  28   0.0028   0.0019   0.0048  -0.0002  -0.0011   0.0011  -0.01    3.2
2023/11/15 17:20:25.000   46.088967471  -79.334407381   238.0838   1  28   0.0028   0.0019   0.0048  -0.0002  -0.0011   0.0011  -0.01    3.2
2023/11/15 17:20:26.000   46.088966464  -79.334405785   238.1015   1  28   0.0028   0.0019   0.0048  -0.0002  -0.0011   0.0011  -0.01    3.2
2023/11/15 17:20:27.000   46.088965836  -79.334405484   238.0986   1  28   0.0028   0.0019   0.0048  -0.0002  -0.0011   0.0011  -0.01    3.2
2023/11/15 17:20:28.000   46.088966346  -79.334406030   238.1013   1  28   0.0028   0.0019   0.0048  -0.0001  -0.0011   0.0011  -0.01    3.2
2023/11/15 17:20:29.000   46.088967998  -79.334405577   238.1035   1  28   0.0028   0.0019   0.0048  -0.0001  -0.0011   0.0012  -0.01    3.2
2023/11/15 17:20:30.000   46.088966041  -79.334405943   238.0868   1  28   0.0028   0.0019   0.0048  -0.0001  -0.0011   0.0012  -0.01    3.2
2023/11/15 17:20:31.000   46.088964821  -79.334405519   238.0564   1  28   0.0028   0.0019   0.0048  -0.0001  -0.0011   0.0012  -0.01    3.2
2023/11/15 17:20:32.000   46.088964565  -79.334405876   238.0470   1  28   0.0028   0.0019   0.0048  -0.0001  -0.0011   0.0012  -0.01    3.2
2023/11/15 17:20:33.000   46.088964541  -79.334405794   238.0479   1  28   0.0028   0.0019   0.0048  -0.0001  -0.0011   0.0012  -0.01    3.2
2023/11/15 17:20:34.000   46.088964518  -79.334405864   238.0484   1  28   0.0028   0.0019   0.0048  -0.0001  -0.0011   0.0012  -0.01    3.2
2023/11/15 17:20:35.000   46.088964718  -79.334405839   238.0539   1  28   0.0028   0.0019   0.0048  -0.0001  -0.0011   0.0012  -0.01    3.2
2023/11/15 17:20:36.000   46.088966323  -79.334407184   238.0731   1  28   0.0028   0.0019   0.0048  -0.0001  -0.0011   0.0012  -0.01    3.2
2023/11/15 17:20:37.000   46.088966393  -79.334407237   238.0733   1  28   0.0028   0.0019   0.0048  -0.0001  -0.0011   0.0012  -0.01    3.2
2023/11/15 17:20:38.000   46.088966274  -79.334407318   238.0774   1  28   0.0028   0.0019   0.0048  -0.0001  -0.0011   0.0012  -0.01    3.2
2023/11/15 17:20:39.000   46.088967445  -79.334407001   238.0783   1  28   0.0028   0.0019   0.0048  -0.0001  -0.0011   0.0012  -0.01    3.2
2023/11/15 17:20:40.000   46.088968572  -79.334407060   238.0607   1  28   0.0028   0.0019   0.0048  -0.0001  -0.0011   0.0012  -0.01    3.2
2023/11/15 17:20:41.000   46.088969108  -79.334407223   238.0312   1  28   0.0028   0.0019   0.0048  -0.0001  -0.0011   0.0012  -0.01    3.1
2023/11/15 17:20:42.000   46.088969213  -79.334407373   238.0295   1  28   0.0028   0.0019   0.0048  -0.0001  -0.0011   0.0012  -0.01    3.2
2023/11/15 17:20:43.000   46.088969128  -79.334407310   238.0278   1  28   0.0028   0.0019   0.0048  -0.0001  -0.0011   0.0012  -0.01    3.2
2023/11/15 17:20:44.000   46.088969105  -79.334407042   238.0319   1  28   0.0028   0.0019   0.0048  -0.0001  -0.0011   0.0012  -0.01    3.2
2023/11/15 17:20:45.000   46.088968928  -79.334407126   238.0296   1  27   0.0029   0.0019   0.0049   0.0002  -0.0011   0.0014  -0.01    3.2
2023/11/15 17:20:46.000   46.088969119  -79.334407292   238.0230   1  28   0.0028   0.0019   0.0048  -0.0001  -0.0011   0.0012  -0.01    3.2
2023/11/15 17:20:47.000   46.088969513  -79.334407636   238.0079   1  28   0.0028   0.0019   0.0048  -0.0002  -0.0011   0.0011  -0.01    3.2
2023/11/15 17:20:48.000   46.088969416  -79.334407957   238.0067   1  28   0.0028   0.0019   0.0048  -0.0002  -0.0011   0.0011  -0.01    3.2
2023/11/15 17:20:49.000   46.088969162  -79.334407931   238.0097   1  28   0.0028   0.0019   0.0048  -0.0001  -0.0011   0.0012  -0.01    3.2
2023/11/15 17:20:50.000   46.088969046  -79.334407858   238.0165   1  28   0.0028   0.0019   0.0048  -0.0002  -0.0011   0.0011  -0.01    3.2
2023/11/15 17:20:51.000   46.088969147  -79.334407324   238.0209   1  28   0.0028   0.0019   0.0048  -0.0002  -0.0011   0.0011  -0.01    3.2
2023/11/15 17:20:52.000   46.088969130  -79.334406702   238.0356   1  28   0.0028   0.0019   0.0048  -0.0002  -0.0011   0.0011  -0.01    3.2
2023/11/15 17:20:53.000   46.088969228  -79.334406937   238.0289   1  28   0.0028   0.0019   0.0048  -0.0002  -0.0011   0.0011  -0.01    3.2
2023/11/15 17:20:54.000   46.088968816  -79.334407182   238.0411   1  28   0.0028   0.0019   0.0048  -0.0002  -0.0011   0.0011  -0.01    3.2
2023/11/15 17:20:55.000   46.088968507  -79.334406556   238.0852   1  28   0.0028   0.0019   0.0048  -0.0002  -0.0011   0.0011  -0.01    3.2
2023/11/15 17:20:56.000   46.088968578  -79.334405868   238.0899   1  28   0.0028   0.0019   0.0048  -0.0002  -0.0011   0.0011  -0.01    3.1
2023/11/15 17:20:57.000   46.088968187  -79.334406005   238.1037   1  28   0.0028   0.0019   0.0048  -0.0002  -0.0011   0.0011  -0.01    3.1
2023/11/15 17:20:58.000   46.088968258  -79.334407727   238.0681   1  28   0.0028   0.0019   0.0048  -0.0002  -0.0011   0.0012  -0.01    3.1
2023/11/15 17:20:59.000   46.088968356  -79.334407635   238.0668   1  28   0.0028   0.0019   0.0048  -0.0002  -0.0011   0.0011  -0.01    3.1
2023/11/15 17:21:00.000   46.088968295  -79.334407775   238.0694   1  28   0.0028   0.0019   0.0048  -0.0002  -0.0011   0.0011  -0.01    3.1
2023/11/15 17:21:01.000   46.088967916  -79.334408303   238.0649   1  28   0.0028   0.0019   0.0048  -0.0002  -0.0011   0.0011  -0.01    3.1
2023/11/15 17:21:02.000   46.088968047  -79.334408137   238.0685   1  28   0.0028   0.0019   0.0048  -0.0002  -0.0011   0.0011  -0.01    3.1
2023/11/15 17:21:03.000   46.088967981  -79.334408309   238.0671   1  28   0.0028   0.0019   0.0048  -0.0002  -0.0011   0.0011  -0.01    3.1
2023/11/15 17:21:04.000   46.088967780  -79.334408474   238.0648   1  28   0.0028   0.0019   0.0048  -0.0002  -0.0011   0.0011  -0.01    3.1
2023/11/15 17:21:05.000   46.088968352  -79.334406545   238.0845   1  28   0.0028   0.0019   0.0048  -0.0002  -0.0011   0.0011  -0.01    3.1
2023/11/15 17:21:06.000   46.088964838  -79.334403603   238.0570   1  28   0.0028   0.0019   0.0048  -0.0002  -0.0011   0.0011  -0.01    3.1
2023/11/15 17:21:07.000   46.088962088  -79.334395057   238.1221   1  28   0.0028   0.0019   0.0048  -0.0002  -0.0011   0.0011  -0.01    3.1
2023/11/15 17:21:08.000   46.088961183  -79.334392786   238.1331   1  28   0.0028   0.0019   0.0048  -0.0002  -0.0011   0.0011  -0.01    3.1
2023/11/15 17:21:09.000   46.088958989  -79.334391492   238.1503   1  28   0.0029   0.0019   0.0049  -0.0004  -0.0010   0.0008  -0.01    3.2
2023/11/15 17:21:10.000   46.088955369  -79.334384940   238.1939   1  28   0.0029   0.0019   0.0048  -0.0006  -0.0008   0.0012  -0.01    3.2
2023/11/15 17:21:11.000   46.088951157  -79.334375576   238.1614   1  28   0.0028   0.0019   0.0047  -0.0004  -0.0010   0.0014  -0.01    3.1
2023/11/15 17:21:12.000   46.088950352  -79.334372785   238.1737   1  28   0.0028   0.0019   0.0047  -0.0004  -0.0010   0.0013  -0.01    3.1
2023/11/15 17:21:13.000   46.088949175  -79.334371884   238.1989   1  28   0.0028   0.0019   0.0047  -0.0004  -0.0010   0.0013  -0.01    3.1
2023/11/15 17:21:14.000   46.088946250  -79.334364989   238.2356   1  28   0.0029   0.0019   0.0048  -0.0002  -0.0011   0.0011  -0.01    3.1
2023/11/15 17:21:15.000   46.088942954  -79.334356226   238.2896   1  28   0.0029   0.0019   0.0050  -0.0005  -0.0009   0.0006  -0.01    3.2
2023/11/15 17:21:16.000   46.088943145  -79.334350978   238.2654   1  28   0.0029   0.0019   0.0048  -0.0003  -0.0011   0.0011  -0.01    3.1
2023/11/15 17:21:17.000   46.088942203  -79.334351127   238.2602   1  28   0.0028   0.0019   0.0048  -0.0005  -0.0009   0.0013  -0.01    3.1
2023/11/15 17:21:18.000   46.088942062  -79.334350165   238.2758   1  28   0.0028   0.0019   0.0048  -0.0005  -0.0008   0.0012  -0.01    3.2
2023/11/15 17:21:19.000   46.088939967  -79.334349818   238.2547   1  27   0.0029   0.0020   0.0049  -0.0008  -0.0010   0.0014  -0.01    3.2
2023/11/15 17:21:20.000   46.088938530  -79.334340719   238.3218   1  27   0.0029   0.0019   0.0050  -0.0004  -0.0009   0.0009  -0.01    3.2
2023/11/15 17:21:21.000   46.088936630  -79.334330637   238.4060   1  27   0.0030   0.0021   0.0052  -0.0008  -0.0007   0.0008  -0.01    4.0
2023/11/15 17:21:22.000   46.088936977  -79.334329596   238.3917   1  27   0.0030   0.0020   0.0050  -0.0005  -0.0008   0.0008  -0.01    3.3
2023/11/15 17:21:23.000   46.088935928  -79.334328683   238.3907   1  27   0.0030   0.0020   0.0050  -0.0005  -0.0008   0.0007  -0.01    3.2
2023/11/15 17:21:24.000   46.088931177  -79.334326273   238.3940   1  27   0.0029   0.0019   0.0050  -0.0005  -0.0009   0.0009  -0.01    3.3
2023/11/15 17:21:25.000   46.088929184  -79.334324656   238.4111   1  27   0.0030   0.0020   0.0051  -0.0008  -0.0010   0.0009  -0.01    3.3
2023/11/15 17:21:26.000   46.088928907  -79.334324044   238.4225   1  27   0.0030   0.0020   0.0051  -0.0008  -0.0010   0.0009  -0.01    3.4
2023/11/15 17:21:27.000   46.088923499  -79.334318483   238.4742   1  27   0.0030   0.0020   0.0050  -0.0007  -0.0010   0.0010  -0.01    3.4
2023/11/15 17:21:28.000   46.088919797  -79.334315293   238.4793   1  27   0.0030   0.0020   0.0051  -0.0007  -0.0010   0.0010  -0.01    3.4
2023/11/15 17:21:29.000   46.088917707  -79.334315941   238.4789   1  27   0.0030   0.0020   0.0051  -0.0008  -0.0010   0.0010  -0.01    3.4
2023/11/15 17:21:30.000   46.088913723  -79.334311000   238.4811   1  27   0.0030   0.0020   0.0050  -0.0007  -0.0010   0.0011  -0.01    3.4
2023/11/15 17:21:31.000   46.088908616  -79.334306279   238.5181   1  27   0.0030   0.0020   0.0050  -0.0005  -0.0008   0.0008  -0.01    3.3
2023/11/15 17:21:32.000   46.088908720  -79.334306114   238.4900   1  27   0.0030   0.0020   0.0052  -0.0007  -0.0005   0.0004  -0.01    3.8
2023/11/15 17:21:33.000   46.088908912  -79.334304930   238.4924   1  27   0.0030   0.0021   0.0052  -0.0008  -0.0007   0.0008  -0.01    4.1
2023/11/15 17:21:34.000   46.088907938  -79.334303308   238.5061   1  27   0.0030   0.0020   0.0051  -0.0008  -0.0010   0.0009  -0.01    3.4
2023/11/15 17:21:35.000   46.088901862  -79.334297686   238.4808   1  27   0.0030   0.0020   0.0050  -0.0006  -0.0011   0.0012  -0.01    3.4
2023/11/15 17:21:36.000   46.088899326  -79.334293931   238.5509   1  27   0.0030   0.0020   0.0051  -0.0008  -0.0009   0.0009  -0.01    3.4
2023/11/15 17:21:37.000   46.088897018  -79.334293332   238.5695   1  27   0.0030   0.0020   0.0051  -0.0008  -0.0009   0.0009  -0.01    3.4
2023/11/15 17:21:38.000   46.088892295  -79.334283487   238.5981   1  27   0.0030   0.0020   0.0050  -0.0007  -0.0010   0.0011  -0.01    3.4
2023/11/15 17:21:39.000   46.088888458  -79.334276144   238.6569   1  27   0.0029   0.0020   0.0050  -0.0006  -0.0011   0.0013  -0.01    3.4
2023/11/15 17:21:40.000   46.088887174  -79.334273249   238.6576   1  27   0.0030   0.0020   0.0050  -0.0007  -0.0010   0.0011  -0.01    3.4
2023/11/15 17:21:41.000   46.088880628  -79.334267421   238.7050   1  27   0.0030   0.0020   0.0050  -0.0007  -0.0010   0.0011  -0.01    3.4
2023/11/15 17:21:42.000   46.088876249  -79.334261200   238.6943   1  27   0.0030   0.0020   0.0050  -0.0007  -0.0010   0.0011  -0.01    3.4
2023/11/15 17:21:43.000   46.088874132  -79.334260318   238.6860   1  27   0.0030   0.0020   0.0051  -0.0007  -0.0010   0.0010  -0.01    3.4
2023/11/15 17:21:44.000   46.088869875  -79.334251589   238.6875   1  27   0.0030   0.0020   0.0050  -0.0006  -0.0009   0.0010  -0.01    3.3
2023/11/15 17:21:45.000   46.088866938  -79.334244574   238.7027   1  27   0.0030   0.0020   0.0050  -0.0007  -0.0010   0.0011  -0.01    3.4
2023/11/15 17:21:46.000   46.088866480  -79.334242841   238.7108   1  27   0.0029   0.0020   0.0049  -0.0005  -0.0012   0.0013  -0.01    3.4
2023/11/15 17:21:47.000   46.088865502  -79.334240308   238.7173   1  27   0.0029   0.0020   0.0049  -0.0005  -0.0012   0.0013  -0.01    3.4
2023/11/15 17:21:48.000   46.088859233  -79.334231477   238.7114   1  27   0.0029   0.0020   0.0049  -0.0005  -0.0012   0.0014  -0.01    3.4
2023/11/15 17:21:49.000   46.088852019  -79.334221302   238.7671   1  27   0.0029   0.0020   0.0049  -0.0005  -0.0012   0.0014  -0.01    3.4
2023/11/15 17:21:50.000   46.088851104  -79.334217425   238.7674   1  27   0.0029   0.0020   0.0049  -0.0005  -0.0012   0.0014  -0.01    3.4
2023/11/15 17:21:51.000   46.088848651  -79.334215804   238.7637   1  27   0.0029   0.0020   0.0049  -0.0005  -0.0012   0.0014  -0.01    3.4
2023/11/15 17:21:52.000   46.088840693  -79.334219179   238.7040   1  27   0.0029   0.0020   0.0049  -0.0005  -0.0012   0.0014  -0.01    3.4
2023/11/15 17:21:53.000   46.088837501  -79.334223585   238.7066   1  27   0.0029   0.0020   0.0049  -0.0005  -0.0012   0.0014  -0.01    3.4
2023/11/15 17:21:54.000   46.088832332  -79.334230615   238.6765   1  27   0.0029   0.0020   0.0049  -0.0005  -0.0012   0.0014  -0.01    3.4
2023/11/15 17:21:55.000   46.088825250  -79.334238657   238.6932   1  27   0.0029   0.0020   0.0049  -0.0005  -0.0012   0.0014  -0.01    3.4
2023/11/15 17:21:56.000   46.088820094  -79.334242746   238.6763   1  27   0.0029   0.0020   0.0049  -0.0005  -0.0012   0.0014  -0.01    3.4
2023/11/15 17:21:57.000   46.088819008  -79.334244470   238.6347   1  27   0.0029   0.0020   0.0049  -0.0005  -0.0012   0.0014  -0.01    3.4
2023/11/15 17:21:58.000   46.088811998  -79.334254804   238.5614   1  27   0.0029   0.0020   0.0049  -0.0005  -0.0012   0.0014  -0.01    3.4
2023/11/15 17:21:59.000   46.088805283  -79.334264510   238.5927   1  25   0.0030   0.0020   0.0051  -0.0001  -0.0010   0.0018  -0.01    3.4
2023/11/15 17:22:00.000   46.088802075  -79.334268133   238.5826   1  27   0.0029   0.0020   0.0049  -0.0005  -0.0012   0.0014  -0.01    3.1
2023/11/15 17:22:01.000   46.088797067  -79.334275761   238.5587   1  27   0.0029   0.0020   0.0049  -0.0005  -0.0012   0.0014  -0.01    3.2
2023/11/15 17:22:02.000   46.088790747  -79.334282973   238.5647   1  26   0.0029   0.0020   0.0050  -0.0003  -0.0010   0.0016  -0.01    3.2
2023/11/15 17:22:03.000   46.088786600  -79.334286649   238.5340   1  27   0.0029   0.0020   0.0049  -0.0005  -0.0012   0.0014  -0.01    3.3
2023/11/15 17:22:04.000   46.088784616  -79.334293199   238.4812   1  27   0.0029   0.0020   0.0049  -0.0005  -0.0012   0.0014  -0.01    3.3
2023/11/15 17:22:05.000   46.088778606  -79.334305219   238.5236   1  27   0.0029   0.0020   0.0049  -0.0005  -0.0012   0.0014  -0.01    3.4
2023/11/15 17:22:06.000   46.088773377  -79.334316579   238.4024   1  26   0.0029   0.0020   0.0050  -0.0003  -0.0010   0.0016  -0.01    3.4
2023/11/15 17:22:07.000   46.088772375  -79.334325029   238.4932   1  24   0.0029   0.0023   0.0054  -0.0004  -0.0002   0.0015  -0.01    3.7
2023/11/15 17:22:08.000   46.088770602  -79.334334148   238.4065   1  27   0.0029   0.0020   0.0049  -0.0005  -0.0012   0.0014  -0.01    3.4
2023/11/15 17:22:09.000   46.088766769  -79.334347399   238.4078   1  26   0.0029   0.0020   0.0050  -0.0003  -0.0010   0.0016  -0.01    3.4
2023/11/15 17:22:10.000   46.088765114  -79.334358546   238.3811   1  26   0.0029   0.0020   0.0050  -0.0003  -0.0010   0.0016  -0.01    3.4
2023/11/15 17:22:11.000   46.088764829  -79.334361628   238.3996   1  26   0.0029   0.0020   0.0050  -0.0003  -0.0010   0.0016  -0.01    3.5
2023/11/15 17:22:12.000   46.088761290  -79.334370683   238.3815   1  26   0.0029   0.0020   0.0050  -0.0003  -0.0010   0.0016  -0.01    3.5
2023/11/15 17:22:13.000   46.088754858  -79.334380991   238.2783   1  27   0.0029   0.0020   0.0049  -0.0005  -0.0012   0.0014  -0.01    3.5
2023/11/15 17:22:14.000   46.088750138  -79.334386661   238.3379   1  27   0.0030   0.0020   0.0050  -0.0007  -0.0010   0.0011  -0.01    3.5
2023/11/15 17:22:15.000   46.088749102  -79.334389126   238.3347   1  27   0.0029   0.0020   0.0049  -0.0005  -0.0012   0.0014  -0.01    3.5
2023/11/15 17:22:16.000   46.088742990  -79.334397325   238.3003   1  27   0.0029   0.0020   0.0049  -0.0005  -0.0012   0.0014  -0.01    3.5
2023/11/15 17:22:17.000   46.088738223  -79.334406461   238.3011   1  27   0.0029   0.0020   0.0049  -0.0005  -0.0012   0.0014  -0.01    3.5
2023/11/15 17:22:18.000   46.088738336  -79.334409646   238.3093   1  27   0.0029   0.0020   0.0049  -0.0005  -0.0012   0.0014  -0.01    3.5
2023/11/15 17:22:19.000   46.088734222  -79.334416586   238.2772   1  27   0.0029   0.0020   0.0049  -0.0005  -0.0012   0.0014  -0.01    3.5
2023/11/15 17:22:20.000   46.088727539  -79.334426058   238.2869   1  27   0.0029   0.0020   0.0049  -0.0005  -0.0012   0.0014  -0.01    3.5
2023/11/15 17:22:21.000   46.088722930  -79.334431898   238.2666   1  27   0.0029   0.0020   0.0049  -0.0005  -0.0012   0.0014  -0.01    3.5
2023/11/15 17:22:22.000   46.088721245  -79.334435766   238.2276   1  27   0.0029   0.0020   0.0049  -0.0005  -0.0012   0.0014  -0.01    3.5
2023/11/15 17:22:23.000   46.088715948  -79.334447185   238.2317   1  27   0.0028   0.0020   0.0048  -0.0006  -0.0011   0.0015  -0.01    3.5
2023/11/15 17:22:24.000   46.088712377  -79.334455269   238.2189   1  27   0.0029   0.0020   0.0049  -0.0005  -0.0012   0.0014  -0.01    3.5
2023/11/15 17:22:25.000   46.088709676  -79.334456938   238.2220   1  27   0.0029   0.0020   0.0049  -0.0005  -0.0012   0.0014  -0.01    3.5
2023/11/15 17:22:26.000   46.088705039  -79.334466430   238.2083   1  27   0.0029   0.0020   0.0049  -0.0005  -0.0012   0.0014  -0.01    3.5
2023/11/15 17:22:27.000   46.088700236  -79.334474178   238.1548   1  27   0.0029   0.0020   0.0049  -0.0005  -0.0012   0.0014  -0.01    3.5
2023/11/15 17:22:28.000   46.088698688  -79.334478582   238.1921   1  27   0.0029   0.0020   0.0049  -0.0005  -0.0012   0.0014  -0.01    3.6
2023/11/15 17:22:29.000   46.088696599  -79.334484283   238.1567   1  27   0.0029   0.0020   0.0049  -0.0005  -0.0012   0.0014  -0.01    3.6
2023/11/15 17:22:30.000   46.088693531  -79.334494747   238.1581   1  27   0.0029   0.0020   0.0049  -0.0005  -0.0012   0.0014  -0.01    3.6
2023/11/15 17:22:31.000   46.088690462  -79.334498925   238.1709   1  27   0.0029   0.0020   0.0049  -0.0005  -0.0012   0.0014  -0.01    3.6
2023/11/15 17:22:32.000   46.088690378  -79.334500511   238.1716   1  27   0.0029   0.0020   0.0048  -0.0006  -0.0011   0.0015  -0.01    3.6
2023/11/15 17:22:33.000   46.088689525  -79.334501219   238.1733   1  27   0.0029   0.0020   0.0049  -0.0005  -0.0011   0.0015  -0.01    3.6
2023/11/15 17:22:34.000   46.088691314  -79.334510590   238.1594   1  27   0.0031   0.0020   0.0052  -0.0007  -0.0014   0.0019  -0.01    3.6
2023/11/15 17:22:35.000   46.088689048  -79.334515738   238.1305   1  27   0.0029   0.0020   0.0050  -0.0004  -0.0012   0.0013  -0.01    3.6
2023/11/15 17:22:36.000   46.088689289  -79.334517760   238.1113   1  27   0.0029   0.0020   0.0049  -0.0005  -0.0012   0.0014  -0.01    3.6
2023/11/15 17:22:37.000   46.088688124  -79.334518006   238.1402   1  27   0.0029   0.0020   0.0049  -0.0005  -0.0012   0.0014  -0.01    3.6
2023/11/15 17:22:38.000   46.088687185  -79.334518621   238.1521   1  27   0.0029   0.0020   0.0049  -0.0006  -0.0012   0.0013  -0.01    3.6
2023/11/15 17:22:39.000   46.088687081  -79.334518333   238.1590   1  27   0.0029   0.0020   0.0049  -0.0005  -0.0012   0.0014  -0.01    3.6
2023/11/15 17:22:40.000   46.088687211  -79.334518258   238.1536   1  27   0.0028   0.0020   0.0048  -0.0006  -0.0012   0.0013  -0.01    3.7
2023/11/15 17:22:41.000   46.088687390  -79.334518581   238.1469   1  27   0.0029   0.0020   0.0049  -0.0005  -0.0012   0.0014  -0.01    3.7
2023/11/15 17:22:42.000   46.088685661  -79.334519763   238.1502   1  27   0.0028   0.0020   0.0048  -0.0006  -0.0012   0.0012  -0.01    3.7
2023/11/15 17:22:43.000   46.088686879  -79.334519096   238.1522   1  27   0.0028   0.0020   0.0048  -0.0006  -0.0012   0.0012  -0.01    3.7
2023/11/15 17:22:44.000   46.088688126  -79.334518911   238.1342   1  27   0.0028   0.0020   0.0048  -0.0006  -0.0012   0.0012  -0.01    3.7
2023/11/15 17:22:45.000   46.088687579  -79.334519473   238.1410   1  27   0.0028   0.0020   0.0048  -0.0006  -0.0012   0.0012  -0.01    3.7
2023/11/15 17:22:46.000   46.088686886  -79.334519394   238.1522   1  27   0.0028   0.0020   0.0048  -0.0006  -0.0012   0.0012  -0.01    3.7
2023/11/15 17:22:47.000   46.088687065  -79.334518092   238.1456   1  27   0.0029   0.0020   0.0049  -0.0005  -0.0012   0.0014  -0.01    3.7
2023/11/15 17:22:48.000   46.088686703  -79.334517972   238.1369   1  27   0.0029   0.0020   0.0049  -0.0005  -0.0012   0.0014  -0.01    3.8
2023/11/15 17:22:49.000   46.088686535  -79.334518036   238.1366   1  27   0.0029   0.0020   0.0050  -0.0005  -0.0010   0.0014  -0.01    5.2
2023/11/15 17:22:50.000   46.088686325  -79.334518105   238.1413   1  27   0.0028   0.0020   0.0049  -0.0006  -0.0012   0.0012  -0.01    5.2
2023/11/15 17:22:51.000   46.088685805  -79.334517654   238.1376   1  27   0.0029   0.0020   0.0050  -0.0004  -0.0011   0.0013  -0.01    5.2
2023/11/15 17:22:52.000   46.088685803  -79.334517610   238.1390   1  27   0.0029   0.0020   0.0050  -0.0005  -0.0011   0.0013  -0.01    5.2
2023/11/15 17:22:53.000   46.088685876  -79.334517529   238.1373   1  27   0.0029   0.0020   0.0050  -0.0005  -0.0011   0.0013  -0.01    5.2
2023/11/15 17:22:54.000   46.088686175  -79.334517347   238.1341   1  27   0.0029   0.0020   0.0050  -0.0005  -0.0011   0.0013  -0.01    5.3
2023/11/15 17:22:55.000   46.088686936  -79.334517680   238.1355   1  27   0.0029   0.0020   0.0049  -0.0006  -0.0012   0.0011  -0.01    5.3
2023/11/15 17:22:56.000   46.088686669  -79.334517388   238.1333   1  27   0.0029   0.0020   0.0049  -0.0006  -0.0012   0.0011  -0.01    5.3
2023/11/15 17:22:57.000   46.088686315  -79.334517306   238.1317   1  27   0.0029   0.0020   0.0050  -0.0005  -0.0010   0.0014  -0.01    5.3
